id;label;Lat;Lng;timeZone
1180281;Dera Ismail Khan - PK;31.83129; 70.9017;Asia/Karachi
11611628;Higashikurume - JP;35.75202; 139.51169;Asia/Tokyo
1273313;Dehra Dun - IN;30.32443; 78.03392;Asia/Kolkata
1529401;Karamay - CN;45.58473; 84.88724;Asia/Urumqi
2110683;Tsukuba - JP;36.2; 140.1;Asia/Tokyo
183595;Ngong - KE;-1.3527; 36.6699;Africa/Nairobi
1138336;Kandahar - AF;31.61332; 65.71013;Asia/Kabul
1165108;Shikarpur - PK;27.95558; 68.63823;Asia/Karachi
3583446;San Miguel - SV;13.48333; -88.18333;America/El_Salvador
1793419;Binhe - CN;32.68833; 112.8275;Asia/Shanghai
2034714;Siping - CN;43.16143; 124.37785;Asia/Shanghai
2320576;Umuahia - NG;5.52491; 7.49461;Africa/Lagos
3728097;Les Cayes - HT;18.19199; -73.74948;America/Port-au-Prince
1647142;Cianjur - ID;-6.82222; 107.13944;Asia/Jakarta
149606;Tanga - TZ;-5.06893; 39.09875;Africa/Dar_es_Salaam
4276614;Olathe - US;38.8814; -94.81913;America/Chicago
1605245;Ubon Ratchathani - TH;15.23844; 104.84866;Asia/Bangkok
323777;Antalya - TR;36.90812; 30.69556;Europe/Istanbul
1267696;Karol Bagh - IN;28.65136; 77.19072;Asia/Kolkata
1283460;Dharan - NP;26.81436; 87.27972;Asia/Kathmandu
2191562;Dunedin - NZ;-45.87416; 170.50361;Pacific/Auckland
609655;Karagandy - KZ;49.80187; 73.10211;Asia/Almaty
1800146;Nanchong - CN;30.79508; 106.08473;Asia/Shanghai
1810845;Fuyang - CN;32.9; 115.81667;Asia/Shanghai
1783934;Shangqiu - CN;34.45; 115.65;Asia/Shanghai
1816865;Bashan - CN;27.76823; 116.05017;Asia/Shanghai
2409306;Freetown - SL;8.48714; -13.2356;Africa/Freetown
158151;Katumba - TZ;-9.23333; 33.61667;Africa/Dar_es_Salaam
2743477;Zwolle - NL;52.5125; 6.09444;Europe/Amsterdam
2654789;Brent - GB;51.55306; -0.3023;Europe/London
99532;Basrah - IQ;30.50852; 47.7804;Asia/Baghdad
140463;Birjand - IR;32.86628; 59.22114;Asia/Tehran
1725115;Binan - PH;14.34267; 121.08071;Asia/Manila
1514210;Chirchiq - UZ;41.46889; 69.58222;Asia/Tashkent
2328765;Nnewi - NG;6.01962; 6.91729;Africa/Lagos
3988086;Saltillo - MX;25.42321; -101.0053;America/Monterrey
3455775;Osasco - BR;-23.5325; -46.79167;America/Sao_Paulo
4679195;Carrollton - US;32.95373; -96.89028;America/Chicago
2377450;Nouakchott - MR;18.08581; -15.9785;Africa/Nouakchott
1215412;Belawan - ID;3.7755; 98.6832;Asia/Jakarta
2346229;Calabar - NG;4.95893; 8.32695;Africa/Lagos
2544571;Kenitra - MA;34.26101; -6.5802;Africa/Casablanca
1174167;Khanpur - PK;28.64739; 70.65694;Asia/Karachi
1803245;Lishui - CN;28.46042; 119.91029;Asia/Shanghai
2035261;Qitaihe - CN;45.768; 130.9953;Asia/Shanghai
1798490;Pulandian - CN;39.39528; 121.96694;Asia/Shanghai
2038438;Baoshan - CN;46.57472; 131.39318;Asia/Shanghai
3445839;Uberaba - BR;-19.74833; -47.93194;America/Sao_Paulo
4710826;Mesquite - US;32.7668; -96.59916;America/Chicago
1831797;Battambang - KH;13.10271; 103.19822;Asia/Phnom_Penh
1172451;Lahore - PK;31.558; 74.35071;Asia/Karachi
1180436;Daska Kalan - PK;32.32422; 74.35039;Asia/Karachi
1863209;Handa - JP;34.88333; 136.93333;Asia/Tokyo
4951788;Springfield - US;42.10148; -72.58981;America/New_York
1705357;Lucena - PH;13.93139; 121.61722;Asia/Manila
1585489;Chi Linh - VN;21.06667; 106.31667;Asia/Bangkok
2640354;Peterborough - GB;52.57364; -0.24777;Europe/London
358619;Port Said - EG;31.26531; 32.3019;Africa/Cairo
515027;Orekhovo-Borisovo Severnoye - RU;55.61667; 37.68333;Europe/Moscow
571741;Brateyevo - RU;55.63755; 37.76438;Europe/Moscow
2950349;Bergisch Gladbach - DE;50.9856; 7.13298;Europe/Berlin
2513416;Murcia - ES;37.98704; -1.13004;Europe/Madrid
2640101;Poole - GB;50.71429; -1.98458;Europe/London
1529167;Tacheng - CN;46.74535; 82.95847;Asia/Urumqi
4726206;San Antonio - US;29.42412; -98.49363;America/Chicago
1670909;Bade - TW;24.92981; 121.28372;Asia/Taipei
2239520;Mbanza Kongo - AO;-6.26667; 14.23833;Africa/Luanda
1586443;Ca Mau - VN;9.17682; 105.15242;Asia/Ho_Chi_Minh
976361;Middelburg - ZA;-25.77507; 29.46482;Africa/Johannesburg
2756071;Enschede - NL;52.21833; 6.89583;Europe/Amsterdam
278913;Nabatiye et Tahta - LB;33.37889; 35.48389;Asia/Beirut
2803138;Antwerpen - BE;51.22047; 4.40026;Europe/Brussels
1798425;Puyang - CN;29.45679; 119.88872;Asia/Shanghai
1729085;Bago City - PH;10.53333; 122.83333;Asia/Manila
204953;Tshikapa - CD;-6.41621; 20.79995;Africa/Lubumbashi
5391811;San Diego - US;32.71571; -117.16472;America/Los_Angeles
712165;Bila Tserkva - UA;49.8004; 30.12851;Europe/Kyiv
359796;Suez - EG;29.97371; 32.52627;Africa/Cairo
1611110;Chon Buri - TH;13.3622; 100.98345;Asia/Bangkok
5416541;Centennial - US;39.57916; -104.87692;America/Denver
350203;Rosetta - EG;31.39951; 30.41718;Africa/Cairo
2037078;Hailar - CN;49.2; 119.7;Asia/Shanghai
5074472;Omaha - US;41.25626; -95.94043;America/Chicago
1791765;Wansheng - CN;28.9629; 106.92844;Asia/Shanghai
2037712;Dehui - CN;44.53333; 125.7;Asia/Shanghai
1513157;Namangan - UZ;40.9983; 71.67257;Asia/Tashkent
285066;Hebron - PS;31.52935; 35.0938;Asia/Hebron
1809408;Gulin - CN;28.04223; 105.81038;Asia/Shanghai
3569370;Alamar - CU;23.15794; -82.27837;America/Havana
1650234;Banjar - ID;-7.1955; 107.4313;Asia/Jakarta
1258076;Rohtak - IN;28.89447; 76.58917;Asia/Kolkata
1271685;Ganganagar - IN;29.92009; 73.87496;Asia/Kolkata
4752186;Chesapeake - US;36.81904; -76.27494;America/New_York
1498920;Mezhdurechensk - RU;53.69417; 88.06028;Asia/Novokuznetsk
1266049;Kota - IN;25.18254; 75.83907;Asia/Kolkata
1270407;Hanumangarh - IN;29.58182; 74.32938;Asia/Kolkata
5882873;Ajax - CA;43.85012; -79.03288;America/Toronto
2063523;Perth - AU;-31.95224; 115.8614;Australia/Perth
1632228;Pasarkemis - ID;-6.17028; 106.53028;Asia/Jakarta
3515807;Cuautitlan Izcalli - MX;19.64388; -99.21598;America/Mexico_City
2324774;Port Harcourt - NG;4.77742; 7.0134;Africa/Lagos
8533133;Liupanshui - CN;26.59444; 104.83333;Asia/Shanghai
625625;Maladziecna - BY;54.3167; 26.854;Europe/Minsk
6325494;Quebec - CA;46.81228; -71.21454;America/Toronto
584821;Tovuz - AZ;40.99249; 45.62838;Asia/Baku
1174872;Karachi - PK;24.8608; 67.0104;Asia/Karachi
1838716;Bucheon-si - KR;37.49889; 126.78306;Asia/Seoul
3644918;Cua - VE;10.16245; -66.88248;America/Caracas
1856057;Nagoya - JP;35.18147; 136.90641;Asia/Tokyo
3436077;Belgrano - AR;-34.5627; -58.45829;America/Argentina/Buenos_Aires
3194828;Mostar - BA;43.34333; 17.80806;Europe/Sarajevo
5254962;Green Bay - US;44.51916; -88.01983;America/Chicago
1562414;Vung Tau - VN;10.34599; 107.08426;Asia/Ho_Chi_Minh
1786731;Qingzhou - CN;36.69667; 118.47972;Asia/Shanghai
1270568;Habra - IN;22.84202; 88.65606;Asia/Kolkata
1276720;Batala - IN;31.80921; 75.20294;Asia/Kolkata
1586989;Buon Ho - VN;12.95226; 108.2962;Asia/Ho_Chi_Minh
1281019;Hotan - CN;37.1075; 79.93548;Asia/Urumqi
2037411;Fengcheng - CN;40.45361; 124.07167;Asia/Shanghai
3687238;Cartagena - CO;10.39972; -75.51444;America/Bogota
1856184;Nagareyama - JP;35.8563; 139.90266;Asia/Tokyo
472045;Voronezh - RU;51.67204; 39.1843;Europe/Moscow
524305;Murmansk - RU;68.97398; 33.09747;Europe/Moscow
1734810;Seremban - MY;2.7297; 101.9381;Asia/Kuala_Lumpur
787657;Nis - RS;43.32472; 21.90333;Europe/Belgrade
1811200;Fengcheng - CN;34.70388; 116.58717;Asia/Shanghai
2033168;Zhaodong - CN;46.05223; 125.9552;Asia/Shanghai
3511540;San Cristobal - DO;18.41667; -70.1;America/Santo_Domingo
3430697;Merlo - AR;-34.66536; -58.72744;America/Argentina/Buenos_Aires
3459943;Jequie - BR;-13.85875; -40.08512;America/Bahia
5381396;Pasadena - US;34.14778; -118.14452;America/Los_Angeles
293397;Tel Aviv - IL;32.08088; 34.78057;Asia/Jerusalem
3397147;Juazeiro do Norte - BR;-7.21306; -39.31528;America/Fortaleza
524294;Murom - RU;55.56853; 42.02388;Europe/Moscow
379062;Al Qadarif - SD;14.03493; 35.38344;Africa/Khartoum
2537763;Sale - MA;34.0531; -6.79846;Africa/Casablanca
12501195;Shahuwadi - IN;16.90993; 73.94654;Asia/Kolkata
3472177;Angra dos Reis - BR;-23.00667; -44.31806;America/Sao_Paulo
554840;Izhevsk - RU;56.84976; 53.20448;Europe/Samara
1793724;Tai'an - CN;36.18528; 117.12;Asia/Shanghai
12492660;Longling County - CN;24.58663; 98.68934;Asia/Shanghai
2911522;Halle (Saale) - DE;51.48158; 11.97947;Europe/Berlin
1276321;Bhadravati - IN;13.84846; 75.70502;Asia/Kolkata
1670029;Banqiao - TW;25.01427; 121.46719;Asia/Taipei
53654;Mogadishu - SO;2.03711; 45.34375;Africa/Mogadishu
3657990;Esmeraldas - EC;0.9592; -79.65397;America/Guayaquil
5368361;Los Angeles - US;34.05223; -118.24368;America/Los_Angeles
2641598;Newport - GB;51.58774; -2.99835;Europe/London
6696918;Taoyuan City - TW;24.99368; 121.29696;Asia/Taipei
2038650;Anda - CN;46.44867; 125.30161;Asia/Shanghai
5454711;Albuquerque - US;35.08449; -106.65114;America/Denver
169577;Homs - SY;34.72682; 36.72339;Asia/Damascus
2486690;M'Sila - DZ;35.70889; 4.53722;Africa/Algiers
2294700;Tema - GH;5.6698; -0.01657;Africa/Accra
6169141;Trois-Rivieres - CA;46.34515; -72.5477;America/Toronto
1795940;Shantou - CN;23.35489; 116.67876;Asia/Shanghai
500004;Rybinsk - RU;58.04562; 38.83811;Europe/Moscow
1818920;Sha Tin - HK;22.38333; 114.18333;Asia/Hong_Kong
3617723;Masaya - NI;11.97444; -86.09417;America/Managua
1270996;Gonda City - IN;27.13181; 81.95332;Asia/Kolkata
1273491;Darbhanga - IN;26.15216; 85.89707;Asia/Kolkata
132938;Gonbad-e Kavus - IR;37.25004; 55.16721;Asia/Tehran
1711084;Iligan - PH;8.2289; 124.24344;Asia/Manila
2742032;Braga - PT;41.55032; -8.42005;Europe/Lisbon
1578500;Kon Tum - VN;14.35451; 108.00759;Asia/Ho_Chi_Minh
4508722;Cincinnati - US;39.12711; -84.51439;America/New_York
5110629;Buffalo - US;42.88645; -78.87837;America/New_York
5308480;Peoria - US;33.5806; -112.23738;America/Phoenix
5325738;Bakersfield - US;35.37329; -119.01871;America/Los_Angeles
2447513;Arlit - NE;18.73694; 7.38528;Africa/Niamey
2023469;Irkutsk - RU;52.29778; 104.29639;Asia/Irkutsk
367644;Sinnar - SD;13.56907; 33.56718;Africa/Khartoum
1791121;Changde - CN;29.03205; 111.69844;Asia/Shanghai
2503661;Bordj el Kiffan - DZ;36.74871; 3.19249;Africa/Algiers
2510253;Torrevieja - ES;37.97872; -0.68222;Europe/Madrid
2336589;Jalingo - NG;8.89367; 11.3596;Africa/Lagos
3449433;Santos - BR;-23.96083; -46.33361;America/Sao_Paulo
3099424;Gdynia - PL;54.51889; 18.53188;Europe/Warsaw
1504682;Kansk - RU;56.20167; 95.7175;Asia/Krasnoyarsk
1787323;Yangshuo - CN;24.78081; 110.48967;Asia/Shanghai
1807700;Huaibei - CN;33.97444; 116.79167;Asia/Shanghai
2038300;Benxi - CN;41.28861; 123.765;Asia/Shanghai
4926563;South Bend - US;41.68338; -86.25001;America/Indiana/Indianapolis
1819757;Aberdeen - HK;22.24802; 114.15289;Asia/Hong_Kong
1627896;Semarang - ID;-6.99306; 110.42083;Asia/Jakarta
1266305;Kolar - IN;13.13768; 78.12999;Asia/Kolkata
1513886;Jizzax - UZ;40.12341; 67.82842;Asia/Samarkand
217834;Bukama - CD;-9.20443; 25.85475;Africa/Lubumbashi
1569684;Pleiku - VN;13.98333; 108.0;Asia/Ho_Chi_Minh
146268;Nicosia - CY;35.17531; 33.3642;Asia/Nicosia
5907364;Brampton - CA;43.68341; -79.76633;America/Toronto
2036892;Hohhot - CN;40.81056; 111.65222;Asia/Shanghai
1841598;Gyeongsan-si - KR;35.82333; 128.73778;Asia/Seoul
1259686;Pilibhit - IN;28.63124; 79.80436;Asia/Kolkata
569223;Cherepovets - RU;59.13333; 37.9;Europe/Moscow
1859730;Kawaguchi - JP;35.80521; 139.71072;Asia/Tokyo
2172797;Cairns - AU;-16.92366; 145.76613;Australia/Brisbane
5352423;Glendale - US;34.14251; -118.25508;America/Los_Angeles
5403022;Torrance - US;33.83585; -118.34063;America/Los_Angeles
680332;Craiova - RO;44.31667; 23.8;Europe/Bucharest
5520993;El Paso - US;31.75872; -106.48693;America/Denver
1260137;Pathankot - IN;32.27484; 75.65287;Asia/Kolkata
2643743;London - GB;51.50853; -0.12574;Europe/London
282615;Nablus - PS;32.22111; 35.25444;Asia/Hebron
517836;Novotroitsk - RU;51.20301; 58.32665;Asia/Yekaterinburg
1275778;Bhusaval - IN;21.04365; 75.78506;Asia/Kolkata
1006984;East London - ZA;-33.01529; 27.91162;Africa/Johannesburg
1797873;Huai'an - CN;33.58861; 119.01917;Asia/Shanghai
3648439;Baruta - VE;10.43424; -66.87558;America/Caracas
3124964;Ciudad Lineal - ES;40.44505; -3.65132;Europe/Madrid
613607;Kutaisi - GE;42.26791; 42.69459;Asia/Tbilisi
1798821;Pingdu - CN;36.78444; 119.94639;Asia/Shanghai
3463011;Franca - BR;-20.53861; -47.40083;America/Sao_Paulo
1253894;Ulhasnagar - IN;19.21667; 73.15;Asia/Kolkata
502971;Ramenki - RU;55.7; 37.5;Europe/Moscow
741385;Mustafakemalpasa - TR;40.03815; 28.40866;Europe/Istanbul
3591062;Puerto Barrios - GT;15.72778; -88.59444;America/Guatemala
1275198;Brahmapur - IN;19.31151; 84.7929;Asia/Kolkata
7279599;Airoli - IN;19.15096; 72.99625;Asia/Kolkata
3461859;Guaratingueta - BR;-22.81639; -45.1925;America/Sao_Paulo
1721906;Cabanatuan City - PH;15.48586; 120.96648;Asia/Manila
4781708;Richmond - US;37.55376; -77.46026;America/New_York
2954172;Augsburg - DE;48.37154; 10.89851;Europe/Berlin
2634491;West Bromwich - GB;52.51868; -1.9945;Europe/London
1789273;Sanshui - CN;23.15486; 112.89161;Asia/Shanghai
2035513;Panshan - CN;41.18806; 122.04944;Asia/Shanghai
2147714;Sydney - AU;-33.86785; 151.20732;Australia/Sydney
1165221;Shekhupura - PK;31.71287; 73.98556;Asia/Karachi
1849846;Toyohashi - JP;34.76667; 137.38333;Asia/Tokyo
1261809;Narela - IN;28.85267; 77.09288;Asia/Kolkata
2332121;Lekki - NG;6.41222; 4.0947;Africa/Lagos
1862752;Higashi-osaka - JP;34.66667; 135.58333;Asia/Tokyo
737022;Zonguldak - TR;41.45139; 31.79305;Europe/Istanbul
1633118;Palangkaraya - ID;-2.20833; 113.91667;Asia/Pontianak
1253200;Vidisha - IN;23.52604; 77.81092;Asia/Kolkata
1253573;Vadodara - IN;22.29941; 73.20812;Asia/Kolkata
6252065;Nou Barris - ES;41.44163; 2.17727;Europe/Madrid
1344377;Haldia - IN;22.06046; 88.10975;Asia/Kolkata
3114965;Ourense - ES;42.33669; -7.86407;Europe/Madrid
2637546;Solihull - GB;52.41426; -1.78094;Europe/London
2853969;Pforzheim - DE;48.88436; 8.69892;Europe/Berlin
184707;Naivasha - KE;-0.71383; 36.43261;Africa/Nairobi
1309937;Pyin Oo Lwin - MM;22.03501; 96.45683;Asia/Yangon
3121245;Gracia - ES;41.40237; 2.15641;Europe/Madrid
2427123;N'Djamena - TD;12.10672; 15.0444;Africa/Ndjamena
179330;Thika - KE;-1.03326; 37.06933;Africa/Nairobi
2654675;Bristol - GB;51.45523; -2.59665;Europe/London
292932;Ajman City - AE;25.40177; 55.47878;Asia/Dubai
2165798;Geelong - AU;-38.14711; 144.36069;Australia/Melbourne
1337240;Nawabganj - BD;24.59025; 88.27444;Asia/Dhaka
495136;Shchukino - RU;55.8; 37.45;Europe/Moscow
310859;Kahramanmaras - TR;37.5847; 36.92641;Europe/Istanbul
1584071;Da Lat - VN;11.94646; 108.44193;Asia/Ho_Chi_Minh
1854083;Omuta - JP;33.03333; 130.45;Asia/Tokyo
1278708;Amroha - IN;28.90314; 78.46984;Asia/Kolkata
1854487;Oita - JP;33.23333; 131.6;Asia/Tokyo
1167460;Rahim Yar Khan - PK;28.41987; 70.30345;Asia/Karachi
2035225;Fendou - CN;46.64142; 124.86283;Asia/Shanghai
3470858;Barbacena - BR;-21.22583; -43.77361;America/Sao_Paulo
1255062;Tambaram - IN;12.9246; 80.12707;Asia/Kolkata
5110266;The Bronx - US;40.84985; -73.86641;America/New_York
1024694;Mocuba - MZ;-16.8375; 36.98556;Africa/Maputo
1715348;Davao - PH;7.07306; 125.61278;Asia/Manila
1810821;Fuzhou - CN;26.06139; 119.30611;Asia/Shanghai
634963;Tampere - FI;61.49911; 23.78712;Europe/Helsinki
1787093;Yantai - CN;37.47649; 121.44081;Asia/Shanghai
1818116;Anbu - CN;23.44895; 116.68092;Asia/Shanghai
2522013;Algeciras - ES;36.13326; -5.45051;Europe/Madrid
4347778;Baltimore - US;39.29038; -76.61219;America/New_York
1633419;Padang - ID;-0.94924; 100.35427;Asia/Jakarta
1270239;Hassan - IN;13.00715; 76.0962;Asia/Kolkata
3897347;Calama - CL;-22.45667; -68.92371;America/Santiago
1788572;Xinxiang - CN;35.19033; 113.80151;Asia/Shanghai
1514019;Fergana - UZ;40.38421; 71.78432;Asia/Tashkent
1626899;Singosari - ID;-7.8924; 112.6658;Asia/Jakarta
2306104;Accra - GH;5.55602; -0.1969;Africa/Accra
1274553;Chas - IN;23.63556; 86.16712;Asia/Kolkata
1278840;Ambattur - IN;13.09818; 80.16152;Asia/Kolkata
2348595;Azare - NG;11.67478; 10.19069;Africa/Lagos
578740;Bataysk - RU;47.13975; 39.75181;Europe/Moscow
964349;Potchefstroom - ZA;-26.71667; 27.1;Africa/Johannesburg
3460728;Itapetininga - BR;-23.59167; -48.05306;America/Sao_Paulo
3471715;Araruama - BR;-22.87278; -42.34306;America/Sao_Paulo
2661604;Basel - CH;47.55839; 7.57327;Europe/Zurich
2111149;Sendai - JP;38.26667; 140.86667;Asia/Tokyo
9166066;Mlolongo - KE;-1.39639; 36.94028;Africa/Nairobi
6621166;Seogwipo - KR;33.25333; 126.56181;Asia/Seoul
5134086;Rochester - US;43.15478; -77.61556;America/New_York
3445451;Varzea Grande - BR;-15.64667; -56.1325;America/Cuiaba
217695;Bunia - CD;1.55941; 30.25224;Africa/Lubumbashi
4756955;East Hampton - US;37.03737; -76.33161;America/New_York
670474;Ploiesti - RO;44.95; 26.01667;Europe/Bucharest
1282027;Male - MV;4.17521; 73.50916;Indian/Maldives
479123;Ulyanovsk - RU;54.32824; 48.38657;Europe/Ulyanovsk
361058;Alexandria - EG;31.20176; 29.91582;Africa/Cairo
4460243;Charlotte - US;35.22709; -80.84313;America/New_York
2532945;Sidi Slimane - MA;34.26479; -5.92598;Africa/Casablanca
3458131;Mairipora - BR;-23.31861; -46.58667;America/Sao_Paulo
3726786;Delmas 73 - HT;18.54472; -72.30278;America/Port-au-Prince
1258662;Ramgundam - IN;18.80084; 79.45206;Asia/Kolkata
2416402;Kamsar - GN;10.65; -14.61667;Africa/Conakry
3515062;Tulancingo - MX;20.08355; -98.36288;America/Mexico_City
4719457;Plano - US;33.01984; -96.69889;America/Chicago
3909234;Oruro - BO;-17.98333; -67.15;America/La_Paz
1529046;Xinyuan - CN;43.42649; 83.24959;Asia/Urumqi
169389;Idlib - SY;35.93062; 36.63393;Asia/Damascus
3523349;Merida - MX;20.97537; -89.61696;America/Merida
3033123;Besancon - FR;47.24878; 6.01815;Europe/Paris
3492908;Santo Domingo - DO;18.47186; -69.89232;America/Santo_Domingo
3347353;Menongue - AO;-14.6585; 17.69099;Africa/Luanda
3052009;Gyor - HU;47.68333; 17.63512;Europe/Budapest
1256320;Sikar - IN;27.61206; 75.13996;Asia/Kolkata
2293521;Abobo - CI;5.41613; -4.0159;Africa/Abidjan
1624647;Tasikmalaya - ID;-7.3274; 108.2207;Asia/Jakarta
1651226;Arjawinangun - ID;-6.64528; 108.41028;Asia/Jakarta
1270801;Gudivada - IN;16.43547; 80.99555;Asia/Kolkata
1274693;Chanda - IN;19.95076; 79.29523;Asia/Kolkata
1897007;Hanam - KR;37.54; 127.20556;Asia/Seoul
12022102;Tumxuk - CN;39.86984; 79.06118;Asia/Urumqi
487495;Sterlitamak - RU;53.62462; 55.95015;Asia/Yekaterinburg
1818673;Tai Po - HK;22.45007; 114.16877;Asia/Hong_Kong
5072006;Lincoln - US;40.8; -96.66696;America/Chicago
1803551;Beiliu - CN;22.70722; 110.34917;Asia/Shanghai
2844588;Rostock - DE;54.0887; 12.14049;Europe/Berlin
1835329;Daegu - KR;35.87028; 128.59111;Asia/Seoul
1258526;Ranchi - IN;23.34316; 85.3094;Asia/Kolkata
2990363;Nimes - FR;43.83665; 4.35788;Europe/Paris
4722625;Richardson - US;32.94818; -96.72972;America/Chicago
2014006;Ussuriysk - RU;43.80291; 131.94578;Asia/Vladivostok
1793346;Tangshan - CN;39.63333; 118.18333;Asia/Shanghai
1798473;Puqi - CN;29.71667; 113.88333;Asia/Shanghai
3685095;Dosquebradas - CO;4.83916; -75.66727;America/Bogota
2357043;Ouahigouya - BF;13.58278; -2.42158;Africa/Ouagadougou
2240449;Luanda - AO;-8.83682; 13.23432;Africa/Luanda
1185281;Bagerhat - BD;22.65657; 89.79123;Asia/Dhaka
3060972;Bratislava - SK;48.14816; 17.10674;Europe/Bratislava
3537906;Santa Clara - CU;22.40694; -79.96472;America/Havana
2944368;Bremerhaven - DE;53.53615; 8.59298;Europe/Berlin
2407790;Kenema - SL;7.87687; -11.19025;Africa/Freetown
2477461;Tebessa - DZ;35.40417; 8.12417;Africa/Algiers
4672989;Beaumont - US;30.08605; -94.10185;America/Chicago
5530022;San Angelo - US;31.46377; -100.43704;America/Chicago
2512989;Palma - ES;39.56939; 2.65024;Europe/Madrid
2516395;Jaen - ES;37.76922; -3.79028;Europe/Madrid
1269605;Jagadhri - IN;30.16719; 77.30367;Asia/Kolkata
3618030;Leon - NI;12.43787; -86.87804;America/Managua
339708;Debre Mark'os - ET;10.35; 37.73333;Africa/Addis_Ababa
2633709;Woking - GB;51.31903; -0.55893;Europe/London
5784607;West Valley City - US;40.69161; -112.00105;America/Denver
64536;Baidoa - SO;3.11383; 43.6498;Africa/Mogadishu
6947640;Beylikduezue - TR;40.982; 28.6399;Europe/Istanbul
11048320;Sector 4 - RO;44.37571; 26.12085;Europe/Bucharest
757026;Tarnow - PL;50.01381; 20.98698;Europe/Warsaw
2224827;Ngaoundere - CM;7.32765; 13.58472;Africa/Douala
204405;Uvira - CD;-3.39534; 29.13779;Africa/Lubumbashi
1846052;Chinju - KR;35.19278; 128.08472;Asia/Seoul
2455558;Kati - ML;12.74409; -8.07257;Africa/Bamako
3171168;Pescara - IT;42.4584; 14.20283;Europe/Rome
1267480;Katihar - IN;25.53852; 87.57044;Asia/Kolkata
94824;Karbala - IQ;32.61603; 44.02488;Asia/Baghdad
281124;Khan Yunis - PS;31.34018; 34.30627;Asia/Gaza
1586350;Cam Ranh - VN;11.92144; 109.15913;Asia/Ho_Chi_Minh
11611487;Tachikawa - JP;35.7091; 139.41891;Asia/Tokyo
1266486;Kishangarh - IN;26.59006; 74.85397;Asia/Kolkata
3127461;Burgos - ES;42.34106; -3.70184;Europe/Madrid
632453;Vantaa - FI;60.29414; 25.04099;Europe/Helsinki
2448085;Agadez - NE;16.97333; 7.99111;Africa/Niamey
2647425;Harrow - GB;51.57835; -0.33208;Europe/London
3473964;Guaiba - BR;-30.11389; -51.325;America/Sao_Paulo
3848950;La Rioja - AR;-29.41105; -66.85067;America/Argentina/La_Rioja
5937615;Delta - CA;49.14399; -122.9068;America/Vancouver
783263;Elbasan - AL;41.1125; 20.08222;Europe/Tirane
1269633;Jabalpur - IN;23.16697; 79.95006;Asia/Kolkata
1254327;Tiruvannamalai - IN;12.22662; 79.07461;Asia/Kolkata
122438;Nazarabad - IR;35.95411; 50.60607;Asia/Tehran
901344;Ndola - ZM;-12.95867; 28.63659;Africa/Lusaka
1787351;Yangquan - CN;37.8575; 113.56333;Asia/Shanghai
1804586;Laiyang - CN;36.97583; 120.71361;Asia/Shanghai
776103;Bialoleka - PL;52.32127; 20.97204;Europe/Warsaw
5640350;Billings - US;45.78329; -108.50069;America/Denver
1214204;Pematangsiantar - ID;2.9595; 99.0687;Asia/Jakarta
1185117;Narsingdi - BD;23.92298; 90.71768;Asia/Dhaka
1336135;Khulna - BD;22.80979; 89.56439;Asia/Dhaka
1846266;Jeju City - KR;33.50972; 126.52194;Asia/Seoul
498698;Saransk - RU;54.1838; 45.1749;Europe/Moscow
579464;Balashikha - RU;55.79479; 37.94794;Europe/Moscow
1688830;San Pablo - PH;14.0683; 121.3256;Asia/Manila
2892518;Kassel - DE;51.31667; 9.5;Europe/Berlin
2521420;Badajoz - ES;38.87789; -6.97061;Europe/Madrid
214481;Kananga - CD;-5.89624; 22.41659;Africa/Lubumbashi
1852663;Seto - JP;35.23333; 137.1;Asia/Tokyo
7284820;Jaigaon - IN;26.84766; 89.37558;Asia/Kolkata
449504;Eslamshahr - IR;35.55222; 51.23504;Asia/Tehran
5911592;Burlington - CA;43.38621; -79.83713;America/Toronto
6822129;Tama - JP;35.6436; 139.46844;Asia/Tokyo
1522203;Kokshetau - KZ;53.28333; 69.4;Asia/Almaty
3827409;Cuauhtemoc - MX;19.44506; -99.14612;America/Mexico_City
12129605;Chakwama - NG;11.55965; 9.66407;Africa/Lagos
1282898;Pokhara - NP;28.26689; 83.96851;Asia/Kathmandu
1735161;Kuala Lumpur - MY;3.1412; 101.68653;Asia/Kuala_Lumpur
2338273;Ikire - NG;7.36983; 4.1863;Africa/Lagos
1861464;Isahaya - JP;32.84111; 130.04306;Asia/Tokyo
1845604;Cheongju-si - KR;36.63722; 127.48972;Asia/Seoul
2288829;Gagnoa - CI;6.13193; -5.9506;Africa/Abidjan
3875024;Puente Alto - CL;-33.61169; -70.57577;America/Santiago
1280737;Lhasa - CN;29.65; 91.1;Asia/Shanghai
1805733;Jinchang - CN;38.50062; 102.19379;Asia/Shanghai
963241;Randburg - ZA;-26.0941; 28.00123;Africa/Johannesburg
3191648;Rijeka - HR;45.32673; 14.44241;Europe/Zagreb
1651887;Adiwerna - ID;-6.9375; 109.1325;Asia/Jakarta
1262710;Mothihari - IN;26.64862; 84.91656;Asia/Kolkata
1856717;Miyazaki - JP;31.91667; 131.41667;Asia/Tokyo
2128574;Otaru - JP;43.18944; 141.00222;Asia/Tokyo
10942359;Baoji - CN;34.36775; 107.23705;Asia/Shanghai
2025339;Chita - RU;52.03171; 113.50087;Asia/Chita
4158476;Hialeah - US;25.8576; -80.27811;America/New_York
4694482;Grand Prairie - US;32.74596; -96.99778;America/Chicago
4903976;North Peoria - US;40.71754; -89.58426;America/Chicago
5814616;Vancouver - US;45.63873; -122.66149;America/Los_Angeles
12269572;Fangchenggang - CN;21.76945; 108.35661;Asia/Shanghai
1851717;Shizuoka - JP;34.98333; 138.38333;Asia/Tokyo
2638077;Sheffield - GB;53.38297; -1.4659;Europe/London
1270396;Haora - IN;22.57688; 88.31857;Asia/Kolkata
1514581;Angren - UZ;41.01667; 70.14361;Asia/Tashkent
1260476;Panipat - IN;29.38747; 76.96825;Asia/Kolkata
2467454;Sfax - TN;34.74056; 10.76028;Africa/Tunis
81302;Tobruk - LY;32.08963; 23.95385;Africa/Tripoli
1734821;Sepang - MY;2.6931; 101.7498;Asia/Kuala_Lumpur
2337490;Inisa - NG;7.84855; 4.32981;Africa/Lagos
3939459;Huancayo - PE;-12.06513; -75.20486;America/Lima
759734;Rzeszow - PL;50.04132; 21.99901;Europe/Warsaw
3080985;Zabrze - PL;50.32492; 18.78576;Europe/Warsaw
1259395;Porbandar - IN;21.64219; 69.60929;Asia/Kolkata
5110302;Brooklyn - US;40.6501; -73.94958;America/New_York
3464975;Curitiba - BR;-25.42778; -49.27306;America/Sao_Paulo
10630003;Xuzhou - CN;34.20442; 117.28386;Asia/Shanghai
5882725;Ahuntsic-Cartierville - CA;45.56667; -73.66667;America/Toronto
1185106;Jamalpur - BD;24.91965; 89.94812;Asia/Dhaka
3181913;Bolzano - IT;46.49067; 11.33982;Europe/Rome
1266945;Khardah - IN;22.71861; 88.37806;Asia/Kolkata
2944388;Bremen - DE;53.07582; 8.80717;Europe/Berlin
523750;Naberezhnyye Chelny - RU;55.72545; 52.41122;Europe/Moscow
99072;Mosul - IQ;36.335; 43.11889;Asia/Baghdad
3446621;Teofilo Otoni - BR;-17.8575; -41.50528;America/Sao_Paulo
3979844;Zacatecas - MX;22.76843; -102.58141;America/Mexico_City
1812990;Dengzhou - CN;32.68222; 112.08194;Asia/Shanghai
706483;Kharkiv - UA;49.98081; 36.25272;Europe/Kyiv
1242833;Jaffna - LK;9.66845; 80.00742;Asia/Colombo
1259827;Phagwara - IN;31.22452; 75.77387;Asia/Kolkata
6822174;Nasushiobara - JP;36.97682; 140.06642;Asia/Tokyo
1822214;Siem Reap - KH;13.36179; 103.86056;Asia/Phnom_Penh
481453;Troparevo - RU;55.65625; 37.48496;Europe/Moscow
153209;Moshi - TZ;-3.35; 37.33333;Africa/Dar_es_Salaam
1684712;Tacloban - PH;11.24333; 125.00472;Asia/Manila
3399058;Garanhuns - BR;-8.88202; -36.50216;America/Recife
3459505;Juiz de Fora - BR;-21.76417; -43.35028;America/Sao_Paulo
2660646;Geneve - CH;46.20222; 6.14569;Europe/Zurich
3547867;Manzanillo - CU;20.34173; -77.12126;America/Havana
1857843;Maebashi - JP;36.4; 139.08333;Asia/Tokyo
1790254;Xiaogan - CN;30.92689; 113.92221;Asia/Shanghai
964137;Pretoria - ZA;-25.74486; 28.18783;Africa/Johannesburg
3125239;Chamartin - ES;40.46206; -3.6766;Europe/Madrid
1631733;Pelabuhanratu - ID;-6.9875; 106.55139;Asia/Jakarta
1265157;Lalitpur - IN;24.69007; 78.41915;Asia/Kolkata
3114256;Parla - ES;40.23604; -3.76752;Europe/Madrid
377039;Port Sudan - SD;19.61745; 37.21644;Africa/Khartoum
4431410;Jackson - US;32.29876; -90.18481;America/Chicago
1808916;Hanjia - CN;29.29524; 108.16132;Asia/Shanghai
1715430;Dasmarinas - PH;14.32944; 120.93667;Asia/Manila
1707404;Laoag - PH;18.1978; 120.5957;Asia/Manila
1646448;Cimahi - ID;-6.87222; 107.5425;Asia/Jakarta
1277599;Balasore - IN;21.49266; 86.93348;Asia/Kolkata
145531;Saurimo - AO;-9.66078; 20.39155;Africa/Luanda
3979770;Zapopan - MX;20.72356; -103.38479;America/Mexico_City
1784580;Zhenzhou - CN;32.28034; 119.16999;Asia/Shanghai
1806299;Jiangmen - CN;22.58333; 113.08333;Asia/Shanghai
2037013;Harbin - CN;45.75; 126.65;Asia/Shanghai
6545310;Mitte - DE;52.52003; 13.40489;Europe/Berlin
4676740;Brownsville - US;25.90175; -97.49748;America/Chicago
1803318;Linyi - CN;35.06306; 118.34278;Asia/Shanghai
8063098;Favoriten - AT;48.16116; 16.38233;Europe/Vienna
78754;Mukalla - YE;14.54248; 49.12424;Asia/Aden
1849053;Utsunomiya - JP;36.56667; 139.88333;Asia/Tokyo
1257542;Sambalpur - IN;21.46527; 83.97573;Asia/Kolkata
2990440;Nice - FR;43.70313; 7.26608;Europe/Paris
2640729;Oxford - GB;51.75222; -1.25596;Europe/London
7628419;Sultanbeyli - TR;40.96072; 29.27067;Europe/Istanbul
1688216;Santa Cruz - PH;14.6; 120.98333;Asia/Manila
2399697;Libreville - GA;0.39241; 9.45356;Africa/Libreville
2653941;Cambridge - GB;52.2; 0.11667;Europe/London
5729485;Gresham - US;45.49818; -122.43148;America/Los_Angeles
1788245;Xiuying - CN;20.00073; 110.29359;Asia/Shanghai
1807544;Daxing - CN;39.74025; 116.32693;Asia/Shanghai
2800866;Brussels - BE;50.85045; 4.34878;Europe/Brussels
473972;Veshnyaki - RU;55.72393; 37.81952;Europe/Moscow
356989;Faqus - EG;30.72816; 31.79697;Africa/Cairo
2464915;Sousse - TN;35.82539; 10.63699;Africa/Tunis
3474574;Palmas - BR;-10.16745; -48.32766;America/Araguaina
3429577;Resistencia - AR;-27.46056; -58.98389;America/Argentina/Cordoba
470451;Vykhino-Zhulebino - RU;55.70196; 37.81178;Europe/Moscow
1690039;San Fernando - PH;15.03425; 120.68445;Asia/Manila
3899887;Alto Hospicio - CL;-20.26871; -70.1049;America/Santiago
2648579;Glasgow - GB;55.86515; -4.25763;Europe/London
1649824;Batu - ID;-7.87; 112.52833;Asia/Jakarta
1254360;Tirupati - IN;13.63551; 79.41989;Asia/Kolkata
2644487;Lincoln - GB;53.22683; -0.53792;Europe/London
1853008;Sandacho - JP;34.88444; 135.22694;Asia/Tokyo
1270990;Gondia - IN;21.46026; 80.19205;Asia/Kolkata
3682385;Floridablanca - CO;7.06222; -73.08644;America/Bogota
3652941;Portoviejo - EC;-1.05458; -80.45445;America/Guayaquil
2643339;Luton - GB;51.87967; -0.41748;Europe/London
717582;Miskolc - HU;48.10306; 20.77806;Europe/Budapest
1259297;Pudukkottai - IN;10.38128; 78.82141;Asia/Kolkata
3662574;Rio Branco - BR;-9.97472; -67.81;America/Rio_Branco
1265014;Latur - IN;18.39721; 76.56784;Asia/Kolkata
3514783;Veracruz - MX;19.18095; -96.1429;America/Mexico_City
3483849;Ciudad Valles - MX;21.99631; -99.01093;America/Mexico_City
7302833;Gajuwaka - IN;17.7; 83.21667;Asia/Kolkata
1855078;Noda - JP;35.94897; 139.86793;Asia/Tokyo
11048319;Sector 3 - RO;44.4234; 26.16874;Europe/Bucharest
1926004;Wakayama - JP;34.23333; 135.16667;Asia/Tokyo
1808770;Hebi - CN;35.89917; 114.1925;Asia/Shanghai
2038679;Acheng - CN;45.54558; 126.95191;Asia/Shanghai
3130564;Alcorcon - ES;40.34582; -3.82487;Europe/Madrid
281129;Jabalya - PS;31.5272; 34.48347;Asia/Gaza
1566319;Thai Nguyen - VN;21.59422; 105.84817;Asia/Bangkok
2253354;Dakar - SN;14.6937; -17.44406;Africa/Dakar
1783940;Zhuji - CN;29.71877; 120.24233;Asia/Shanghai
738618;Turhal - TR;40.3875; 36.08111;Europe/Istanbul
2042893;Manp'o - KP;41.15472; 126.28944;Asia/Pyongyang
1269653;Itarsi - IN;22.61477; 77.76222;Asia/Kolkata
461835;Zyablikovo - RU;55.61667; 37.76667;Europe/Moscow
496638;Sergiyev Posad - RU;56.31204; 38.13869;Europe/Moscow
102527;Sakakah - SA;29.96974; 40.20641;Asia/Riyadh
1794209;Simao - CN;22.78863; 100.97481;Asia/Shanghai
2067119;Mandurah - AU;-32.5269; 115.7217;Australia/Perth
1529641;Aral - CN;40.54184; 81.26566;Asia/Urumqi
1813253;Lijiang - CN;26.86879; 100.22072;Asia/Shanghai
7483743;Puthia - BD;24.36537; 88.83431;Asia/Dhaka
3096472;Katowice - PL;50.25841; 19.02754;Europe/Warsaw
379555;El Fasher - SD;13.62793; 25.34936;Africa/Khartoum
2516326;Jerez de la Frontera - ES;36.68645; -6.13606;Europe/Madrid
1252770;Yavatmal - IN;20.39324; 78.13201;Asia/Kolkata
2645425;Kingston upon Hull - GB;53.7446; -0.33525;Europe/London
2013348;Vladivostok - RU;43.10562; 131.87353;Asia/Vladivostok
1809078;Haikou - CN;20.03421; 110.34651;Asia/Shanghai
2831580;Solingen - DE;51.17343; 7.0845;Europe/Berlin
1833788;Uijeongbu-si - KR;37.7415; 127.0474;Asia/Seoul
378231;Atbara - SD;17.70217; 33.98638;Africa/Khartoum
1790442;Xiangcheng - CN;25.46687; 100.56248;Asia/Shanghai
1807566;Xingyi - CN;25.09617; 104.90639;Asia/Shanghai
3673899;Neiva - CO;2.9273; -75.28189;America/Bogota
2298330;Medina Estates - GH;5.6658; -0.16307;Africa/Accra
1271675;Gangapur - IN;26.47249; 76.71744;Asia/Kolkata
1689395;San Jose del Monte - PH;14.81389; 121.04528;Asia/Manila
63400;Cabudwaaq - SO;6.24585; 46.2247;Africa/Addis_Ababa
4903279;Naperville - US;41.78586; -88.14729;America/Chicago
1309611;Myeik - MM;12.43954; 98.60028;Asia/Yangon
1864624;Chigasaki - JP;35.33638; 139.40434;Asia/Tokyo
2037886;Dandong - CN;40.12917; 124.39472;Asia/Shanghai
1648186;Bontang - ID;0.1324; 117.4854;Asia/Makassar
1816670;Beijing - CN;39.9075; 116.39723;Asia/Shanghai
2895992;Ingolstadt - DE;48.76508; 11.42372;Europe/Berlin
126972;Khowy - IR;38.5503; 44.9521;Asia/Tehran
358821;Bilqas - EG;31.21452; 31.35798;Africa/Cairo
3457692;Marilia - BR;-22.21389; -49.94583;America/Sao_Paulo
2655613;Birkenhead - GB;53.39337; -3.01479;Europe/London
1279186;Aizawl - IN;23.72894; 92.71791;Asia/Kolkata
7302856;Serilingampalle - IN;17.49313; 78.30196;Asia/Kolkata
479561;Ufa - RU;54.74306; 55.96779;Asia/Yekaterinburg
5406567;Visalia - US;36.33023; -119.29206;America/Los_Angeles
4930956;Boston - US;42.35843; -71.05977;America/New_York
6077243;Montreal - CA;45.50884; -73.58781;America/Toronto
2387495;Carnot - CF;4.94273; 15.87735;Africa/Bangui
1784658;Zhengzhou - CN;34.75778; 113.64861;Asia/Shanghai
4574324;Charleston - US;32.77657; -79.93092;America/New_York
2544333;Khenifra - MA;32.93492; -5.66167;Africa/Casablanca
1280957;Jiayuguan - CN;39.81121; 98.28618;Asia/Shanghai
3447259;Sumare - BR;-22.82194; -47.26694;America/Sao_Paulo
1263780;Mangalore - IN;12.91723; 74.85603;Asia/Kolkata
1271308;Ghaziabad - IN;28.66535; 77.43915;Asia/Kolkata
4568127;San Juan - PR;18.46633; -66.10572;America/Puerto_Rico
2035966;Longjing - CN;42.77131; 129.42307;Asia/Shanghai
2037086;Haicheng - CN;40.85158; 122.74754;Asia/Shanghai
2310046;Bata - GQ;1.86391; 9.76582;Africa/Malabo
1864031;Fukayacho - JP;36.2; 139.28333;Asia/Tokyo
191299;Kisii - KE;-0.68174; 34.76666;Africa/Nairobi
347796;Sohag - EG;26.55695; 31.69478;Africa/Cairo
298806;Turgutlu - TR;38.49533; 27.6997;Europe/Istanbul
1278903;Amarnath - IN;19.2; 73.16667;Asia/Kolkata
117392;Saqqez - IR;36.24992; 46.2735;Asia/Tehran
3082914;Tychy - PL;50.13717; 18.96641;Europe/Warsaw
1269317;Jamnagar - IN;22.47292; 70.06673;Asia/Kolkata
5435464;Pueblo - US;38.25445; -104.60914;America/Denver
2034439;Tieling - CN;42.29306; 123.84139;Asia/Shanghai
2910685;Harburg - DE;53.46057; 9.98388;Europe/Berlin
1267579;Kashipur - IN;29.21399; 78.95693;Asia/Kolkata
3698304;Chimbote - PE;-9.07508; -78.59373;America/Lima
1307835;Myingyan - MM;21.46002; 95.3884;Asia/Yangon
710719;Chernivtsi - UA;48.29045; 25.93241;Europe/Kyiv
2487134;Mostaganem - DZ;35.93115; 0.08918;Africa/Algiers
361546;Arish - EG;31.13159; 33.79844;Africa/Cairo
2549979;El Kelaa des Srarhna - MA;32.05121; -7.41079;Africa/Casablanca
3877949;Osorno - CL;-40.57395; -73.13348;America/Santiago
322830;Aydin - TR;37.84501; 27.83963;Europe/Istanbul
2248477;Mbour - SN;14.42196; -16.96375;Africa/Dakar
3386361;Timon - BR;-5.09417; -42.83667;America/Fortaleza
215527;Kabinda - CD;-6.13791; 24.48179;Africa/Lubumbashi
293703;Rishon LeTsiyyon - IL;31.97102; 34.78939;Asia/Jerusalem
1275901;Bhiwandi - IN;19.30023; 73.05881;Asia/Kolkata
3530589;Ciudad Nezahualcoyotl - MX;19.40061; -99.01483;America/Mexico_City
1771023;Kampung Baru Subang - MY;3.15; 101.53333;Asia/Kuala_Lumpur
2034638;Sujiatun - CN;41.65917; 123.33917;Asia/Shanghai
6318696;Sinop - BR;-11.86417; -55.5025;America/Cuiaba
2593460;Masina - CD;-4.38361; 15.39139;Africa/Kinshasa
1849814;Toyota - JP;35.08333; 137.15;Asia/Tokyo
1857046;Mino - JP;34.82691; 135.47057;Asia/Tokyo
1858421;Kumamoto - JP;32.80589; 130.69181;Asia/Tokyo
354775;Kafr ad Dawwar - EG;31.13379; 30.12969;Africa/Cairo
359280;Banha - EG;30.45977; 31.1842;Africa/Cairo
2299522;Koforidua - GH;6.09408; -0.25913;Africa/Accra
3591415;Petapa - GT;14.50189; -90.56196;America/Guatemala
1279159;Ajmer - IN;26.4521; 74.63867;Asia/Kolkata
12069922;Rohini - IN;28.74322; 77.06778;Asia/Kolkata
5101798;Newark - US;40.73566; -74.17237;America/New_York
11184422;Planaltina - BR;-15.61791; -47.64874;America/Sao_Paulo
1221874;Dushanbe - TJ;38.53575; 68.77905;Asia/Dushanbe
339219;Dessie - ET;11.13333; 39.63333;Africa/Addis_Ababa
2753801;Hoofddorp - NL;52.3025; 4.68889;Europe/Amsterdam
946877;Uitenhage - ZA;-33.75757; 25.3971;Africa/Johannesburg
2034996;Shanhaiguan - CN;40.0025; 119.74889;Asia/Shanghai
1254089;Tumkur - IN;13.34136; 77.1022;Asia/Kolkata
3454690;Paulinia - BR;-22.76111; -47.15417;America/Sao_Paulo
5927690;Coquitlam - CA;49.2846; -122.78217;America/Vancouver
1205733;Chattogram - BD;22.3384; 91.83168;Asia/Dhaka
1735634;Kuching - MY;1.55; 110.33333;Asia/Kuching
3100796;Dabrowa Gornicza - PL;50.33394; 19.20479;Europe/Warsaw
2021851;Komsomolsk-on-Amur - RU;50.55034; 137.00995;Asia/Vladivostok
684039;Botosani - RO;47.75; 26.66667;Europe/Bucharest
6066513;Markham - CA;43.86682; -79.2663;America/Toronto
5808189;Renton - US;47.48288; -122.21707;America/Los_Angeles
3628423;San Felipe - VE;10.33991; -68.74247;America/Caracas
1866923;Wonsan - KP;39.15278; 127.44361;Asia/Pyongyang
2219936;Al Jumayl - LY;32.85286; 12.0612;Africa/Tripoli
3514450;Xochimilco - MX;19.25465; -99.10356;America/Mexico_City
3054643;Budapest - HU;47.49835; 19.04045;Europe/Budapest
1650077;Banyuwangi - ID;-8.2325; 114.35755;Asia/Jakarta
3448632;Sao Jose dos Pinhais - BR;-25.5302; -49.20836;America/Sao_Paulo
4685907;Denton - US;33.21484; -97.13307;America/Chicago
3671916;Popayan - CO;2.43823; -76.61316;America/Bogota
3114472;Pamplona - ES;42.81687; -1.64323;Europe/Madrid
1859740;Kawagoe - JP;35.90861; 139.48528;Asia/Tokyo
4171563;St. Petersburg - US;27.77086; -82.67927;America/New_York
1793700;Taishan - CN;22.25135; 112.7799;Asia/Shanghai
740483;Rize - TR;41.02083; 40.52194;Europe/Istanbul
116667;Saveh - IR;35.0213; 50.3566;Asia/Tehran
119208;Qom - IR;34.6401; 50.8764;Asia/Tehran
727523;Ruse - BG;43.84872; 25.9534;Europe/Sofia
3405870;Belem - BR;-1.45583; -48.50444;America/Belem
3447212;Suzano - BR;-23.5425; -46.31083;America/Sao_Paulo
3450404;Santa Barbara d'Oeste - BR;-22.75361; -47.41361;America/Sao_Paulo
212902;Kindu - CD;-2.94373; 25.92237;Africa/Lubumbashi
2044757;Chongjin - KP;41.79556; 129.77583;Asia/Pyongyang
1629710;Rengasdengklok - ID;-6.15917; 107.29806;Asia/Jakarta
1529569;Changji - CN;44.00782; 87.30461;Asia/Urumqi
3995402;Morelia - MX;19.70078; -101.18443;America/Mexico_City
4011743;Victoria de Durango - MX;24.02032; -104.65756;America/Monterrey
3494242;Punta Cana - DO;18.58182; -68.40431;America/Santo_Domingo
360761;Al Mansurah - EG;31.03637; 31.38069;Africa/Cairo
1586296;Can Giuoc - VN;10.60857; 106.67135;Asia/Ho_Chi_Minh
1789262;Xinyi - CN;34.38424; 118.34617;Asia/Shanghai
3082707;Walbrzych - PL;50.77141; 16.28432;Europe/Warsaw
3625549;Valencia - VE;10.16202; -68.00765;America/Caracas
498677;Saratov - RU;51.54056; 46.00861;Europe/Saratov
2019528;Nakhodka - RU;42.81384; 132.87348;Asia/Vladivostok
2692969;Malmoe - SE;55.60587; 13.00073;Europe/Stockholm
3437863;Lambare - PY;-25.34682; -57.60647;America/Asuncion
480562;Tula - RU;54.19609; 37.61822;Europe/Moscow
2644688;Leeds - GB;53.79648; -1.54785;Europe/London
1587759;Binh Thuy - VN;10.07431; 105.73974;Asia/Ho_Chi_Minh
1790492;Xiangtan - CN;27.85; 112.9;Asia/Shanghai
3557689;Guantanamo - CU;20.14444; -75.20917;America/Havana
1272691;Dhulia - IN;20.9013; 74.77737;Asia/Kolkata
1278946;Alwar - IN;27.56246; 76.625;Asia/Kolkata
3722286;Leogane - HT;18.5111; -72.63343;America/Port-au-Prince
1627253;Sidoarjo - ID;-7.4478; 112.7183;Asia/Jakarta
1257055;Satara - IN;17.68589; 73.99333;Asia/Kolkata
1257629;Salem - IN;11.65376; 78.15538;Asia/Kolkata
1261045;Ongole - IN;15.50357; 80.04454;Asia/Kolkata
1926099;Matsuyama - JP;33.83916; 132.76574;Asia/Tokyo
1843564;Incheon - KR;37.45646; 126.70515;Asia/Seoul
4459467;Cary - US;35.79154; -78.78112;America/New_York
2300379;Ho - GH;6.60084; 0.4713;Africa/Accra
2422465;Conakry - GN;9.53795; -13.67729;Africa/Conakry
1801582;Macheng - CN;31.18013; 115.02213;Asia/Shanghai
1802206;Lu'an - CN;31.73561; 116.51688;Asia/Shanghai
1809077;Haikou - CN;24.77985; 102.57548;Asia/Shanghai
3670730;Rionegro - CO;6.15515; -75.37371;America/Bogota
3689560;Armenia - CO;4.53389; -75.68111;America/Bogota
2803201;Anderlecht - BE;50.83619; 4.31454;Europe/Brussels
2929670;Erfurt - DE;50.9787; 11.03283;Europe/Berlin
1214658;Lhokseumawe - ID;5.1801; 97.1507;Asia/Jakarta
3523183;Minatitlan - MX;18.00011; -94.5569;America/Mexico_City
1632197;Paseh - ID;-7.1026; 107.7641;Asia/Jakarta
3119841;A Coruna - ES;43.37135; -8.396;Europe/Madrid
3029241;Caen - FR;49.18585; -0.35912;Europe/Paris
1795565;Shenzhen - CN;22.54554; 114.0683;Asia/Shanghai
1817968;Anshun - CN;26.25; 105.93333;Asia/Shanghai
11695689;Jeongeup - KR;35.60004; 126.91699;Asia/Seoul
2491191;Laghouat - DZ;33.8; 2.86514;Africa/Algiers
2036595;Jalai Nur - CN;49.45; 117.7;Asia/Shanghai
3666608;Tunja - CO;5.53528; -73.36778;America/Bogota
3402429;Caucaia - BR;-3.73611; -38.65306;America/Fortaleza
693468;Sloviansk - UA;48.84974; 37.59739;Europe/Kyiv
710735;Chernihiv - UA;51.50551; 31.28487;Europe/Kyiv
1819283;San Tung Chung Hang - HK;22.27875; 113.94307;Asia/Hong_Kong
2633352;York - GB;53.95763; -1.08271;Europe/London
3515431;Tlalnepantla - MX;19.54005; -99.19538;America/Mexico_City
6544099;Moncloa-Aravaca - ES;40.43547; -3.7317;Europe/Madrid
330186;Nazret - ET;8.55; 39.26667;Africa/Addis_Ababa
884979;Mutare - ZW;-18.9707; 32.67086;Africa/Harare
2246678;Pikine - SN;14.76457; -17.39071;Africa/Dakar
2650225;Edinburgh - GB;55.95206; -3.19648;Europe/London
1274304;Chhindwara - IN;22.05697; 78.93958;Asia/Kolkata
325363;Adana - TR;36.98615; 35.32531;Europe/Istanbul
1668341;Taipei - TW;25.04776; 121.53185;Asia/Taipei
6122085;Richmond - CA;49.17003; -123.13683;America/Vancouver
292672;Sharjah - AE;25.33737; 55.41206;Asia/Dubai
1869012;Sunch'on - KP;39.43167; 125.93278;Asia/Pyongyang
598316;Kaunas - LT;54.90272; 23.90961;Europe/Vilnius
1640344;Kendari - ID;-3.9778; 122.51507;Asia/Makassar
3448742;Sao Jose - BR;-28.21171; -49.1632;America/Sao_Paulo
3450144;Santa Luzia - BR;-19.76972; -43.85139;America/Sao_Paulo
1489425;Tomsk - RU;56.49771; 84.97437;Asia/Tomsk
220075;Bakwa - CD;4.1263; 27.39527;Africa/Lubumbashi
3460102;Jaragua do Sul - BR;-26.48611; -49.06667;America/Sao_Paulo
1798449;Putian - CN;25.43944; 119.01028;Asia/Shanghai
3514670;Villahermosa - MX;17.98689; -92.93028;America/Mexico_City
1279945;Jiuquan - CN;39.74318; 98.51736;Asia/Shanghai
1788852;Xining - CN;36.62554; 101.75739;Asia/Shanghai
1493467;Rubtsovsk - RU;51.51473; 81.20613;Asia/Barnaul
1632353;Parepare - ID;-4.0135; 119.6255;Asia/Makassar
6141256;Saskatoon - CA;52.13238; -106.66892;America/Regina
1269843;Hyderabad - IN;17.38405; 78.45636;Asia/Kolkata
1814870;Yiwu - CN;29.31506; 120.07676;Asia/Shanghai
704147;Kremenchuk - UA;49.06253; 33.40484;Europe/Kyiv
4151316;Clearwater - US;27.96585; -82.8001;America/New_York
1055429;Toliara - MG;-23.35; 43.66667;Indian/Antananarivo
5396003;Simi Valley - US;34.26945; -118.78148;America/Los_Angeles
5102466;Paterson - US;40.91677; -74.17181;America/New_York
2235189;Bafoussam - CM;5.47775; 10.41759;Africa/Douala
1785716;Pizhou - CN;34.31139; 117.95028;Asia/Shanghai
3169361;Rimini - IT;44.05755; 12.56528;Europe/Rome
472757;Volgograd - RU;48.71939; 44.50183;Europe/Volgograd
1624041;Ternate - ID;0.79065; 127.38424;Asia/Jayapura
2639577;Reading - GB;51.45625; -0.97113;Europe/London
543878;Kostroma - RU;57.76647; 40.92686;Europe/Moscow
2038342;Beipiao - CN;41.79194; 120.77917;Asia/Shanghai
1635111;Mojokerto - ID;-7.4664; 112.4338;Asia/Jakarta
1274056;Chitradurga - IN;14.22262; 76.40038;Asia/Kolkata
1853574;Otsu - JP;35.0; 135.86667;Asia/Tokyo
2037346;Fuxin - CN;42.01556; 121.65889;Asia/Shanghai
3674453;Monteria - CO;8.74798; -75.88143;America/Bogota
1818304;Wong Tai Sin - HK;22.35; 114.18333;Asia/Hong_Kong
1642911;Jakarta - ID;-6.21462; 106.84513;Asia/Jakarta
1256728;Shahjanpur - IN;27.88165; 79.90918;Asia/Kolkata
1271662;Gangawati - IN;15.4313; 76.52933;Asia/Kolkata
2475475;Touggourt - DZ;33.11083; 6.07;Africa/Algiers
463355;Zheleznodorozhnyy - RU;55.744; 38.01684;Europe/Moscow
3445156;Viamao - BR;-30.08111; -51.02333;America/Sao_Paulo
3449324;Sao Caetano do Sul - BR;-23.62306; -46.55111;America/Sao_Paulo
355026;Girga - EG;26.33721; 31.89295;Africa/Cairo
1797632;Yizhou - CN;24.5; 108.66667;Asia/Shanghai
2528910;Tetouan - MA;35.57845; -5.36837;Africa/Casablanca
1857871;Machida - JP;35.54028; 139.45083;Asia/Tokyo
2745641;Venlo - NL;51.37; 6.16806;Europe/Amsterdam
1692520;Pulong Santa Cruz - PH;14.27324; 121.07643;Asia/Manila
738377;Umraniye - TR;41.01643; 29.12476;Europe/Istanbul
153176;Mpanda - TZ;-6.34379; 31.06951;Africa/Dar_es_Salaam
1153671;Chiang Mai - TH;18.79038; 98.98468;Asia/Bangkok
379303;Geneina - SD;13.45262; 22.44725;Africa/Khartoum
2036986;Hegang - CN;47.34727; 130.29033;Asia/Shanghai
2244799;Thies Nones - SN;14.78333; -16.96667;Africa/Dakar
170063;Aleppo - SY;36.20124; 37.16117;Asia/Damascus
518659;Novokuybyshevsk - RU;53.0959; 49.9462;Europe/Samara
993800;Johannesburg - ZA;-26.20227; 28.04363;Africa/Johannesburg
1785294;Anyang - CN;36.096; 114.38278;Asia/Shanghai
6690870;Becontree - GB;51.5529; 0.129;Europe/London
1275004;Kolkata - IN;22.56263; 88.36304;Asia/Kolkata
111822;Yazd - IR;31.89722; 54.3675;Asia/Tehran
12492669;Pingwu County - CN;32.40732; 104.52738;Asia/Shanghai
3540667;Sancti Spiritus - CU;21.92972; -79.4425;America/Havana
2624886;Aalborg - DK;57.048; 9.9187;Europe/Copenhagen
4671240;Arlington - US;32.73569; -97.10807;America/Chicago
6119109;Regina - CA;50.45008; -104.6178;America/Regina
1270498;Haldwani - IN;29.22254; 79.5286;Asia/Kolkata
358448;Damanhur - EG;31.03408; 30.46823;Africa/Cairo
4669635;Abilene - US;32.44874; -99.73314;America/Chicago
2675408;Sollentuna - SE;59.42804; 17.95093;Europe/Stockholm
121801;Orumiyeh - IR;37.55274; 45.07605;Asia/Tehran
491023;Solikamsk - RU;59.6316; 56.7685;Asia/Yekaterinburg
554233;Korolev - RU;55.91417; 37.82556;Europe/Moscow
1803782;Lichuan - CN;30.3; 108.85;Asia/Shanghai
6317344;Jaboatao dos Guararapes - BR;-8.11278; -35.01472;America/Recife
1256515;Shimoga - IN;13.93157; 75.56791;Asia/Kolkata
1262775;Morbi - IN;22.81731; 70.8377;Asia/Kolkata
563464;Engels - RU;51.48389; 46.10528;Europe/Saratov
4543762;Norman - US;35.22257; -97.43948;America/Chicago
3647651;Cabimas - VE;10.39907; -71.45206;America/Caracas
2179537;Wellington - NZ;-41.28664; 174.77557;Pacific/Auckland
3489297;New Kingston - JM;18.00747; -76.78319;America/Jamaica
3465476;Coronel Fabriciano - BR;-19.51861; -42.62889;America/Sao_Paulo
1797353;Quanzhou - CN;24.91389; 118.58583;Asia/Shanghai
3907584;Potosi - BO;-19.58361; -65.75306;America/La_Paz
2653822;Cardiff - GB;51.48; -3.18;Europe/London
1278149;Sambhaji Nagar - IN;19.87757; 75.34226;Asia/Kolkata
163345;Tartus - SY;34.88902; 35.88659;Asia/Damascus
1810437;Gaoping - CN;30.77576; 106.10294;Asia/Shanghai
369004;Nyala - SD;12.04888; 24.88069;Africa/Khartoum
3488981;Portmore - JM;17.97102; -76.88691;America/Jamaica
2319133;Warri - NG;5.51737; 5.75006;Africa/Lagos
1801615;Maba - CN;24.68413; 113.59839;Asia/Shanghai
2988507;Paris - FR;48.85341; 2.3488;Europe/Paris
6822216;Kani - JP;35.40435; 137.05595;Asia/Tokyo
2491889;Khenchela - DZ;35.43583; 7.14333;Africa/Algiers
3654667;Loja - EC;-3.99313; -79.20422;America/Guayaquil
360686;Minya - EG;28.09193; 30.75813;Africa/Cairo
2649808;Exeter - GB;50.7236; -3.52751;Europe/London
3463237;Florianopolis - BR;-27.59667; -48.54917;America/Sao_Paulo
1842944;Gimcheon - KR;36.12176; 128.11981;Asia/Seoul
1843491;Iksan - KR;35.94389; 126.95444;Asia/Seoul
7284830;Budapest XIII. keruelet - HU;47.52978; 19.08068;Europe/Budapest
1651531;Ambon - ID;-3.69583; 128.18333;Asia/Jayapura
678817;Drobeta-Turnu Severin - RO;44.62693; 22.65288;Europe/Bucharest
4703223;Killeen - US;31.11712; -97.7278;America/Chicago
1213614;Sunggal - ID;3.5765; 98.6151;Asia/Jakarta
293788;Ramat Gan - IL;32.08227; 34.81065;Asia/Jerusalem
4883817;Aurora - US;41.76058; -88.32007;America/Chicago
5345529;El Cajon - US;32.79477; -116.96253;America/Los_Angeles
1270576;Gyanpur - IN;25.33268; 82.46637;Asia/Kolkata
1169027;New Mirpur - PK;33.14782; 73.75187;Asia/Karachi
516264;Ochakovo-Matveyevskoye - RU;55.68432; 37.44654;Europe/Moscow
1270164;Hazaribagh - IN;23.99241; 85.36162;Asia/Kolkata
3617763;Managua - NI;12.13282; -86.2504;America/Managua
5316428;Surprise - US;33.63059; -112.33322;America/Phoenix
2362344;Bobo-Dioulasso - BF;11.17715; -4.2979;Africa/Ouagadougou
3518135;San Pablo de las Salinas - MX;19.66658; -99.09477;America/Mexico_City
1270370;Hardoi - IN;27.39491; 80.13165;Asia/Kolkata
1630997;Plumbon - ID;-6.705; 108.47278;Asia/Jakarta
1873757;Namp'o - KP;38.7375; 125.40778;Asia/Pyongyang
98717;Ramadi - IQ;33.42056; 43.30778;Asia/Baghdad
5363748;Koreatown - US;34.05779; -118.30091;America/Los_Angeles
751077;Bandirma - TR;40.35222; 27.97667;Europe/Istanbul
1648637;Bitung - ID;1.44059; 125.12824;Asia/Makassar
4006163;Fresnillo - MX;23.18126; -102.87136;America/Mexico_City
4140963;Washington - US;38.89511; -77.03637;America/New_York
2110556;Yamagata - JP;38.23333; 140.36667;Asia/Tokyo
250258;As Salt - JO;32.03917; 35.72722;Asia/Amman
1803567;Linfen - CN;36.08889; 111.51889;Asia/Shanghai
1810458;Gaomi - CN;36.38333; 119.75278;Asia/Shanghai
358840;Bilbeis - EG;30.42039; 31.56223;Africa/Cairo
1850147;Tokyo - JP;35.6895; 139.69171;Asia/Tokyo
1638063;Lembang - ID;-6.81167; 107.6175;Asia/Jakarta
1216311;Qarshi - UZ;38.86056; 65.78905;Asia/Samarkand
769250;Kielce - PL;50.87033; 20.62752;Europe/Warsaw
2290486;Daloa - CI;6.87735; -6.45022;Africa/Abidjan
2232283;Ebolowa - CM;2.9; 11.15;Africa/Douala
1783873;Zhumadian - CN;32.97944; 114.02944;Asia/Shanghai
3689169;Barrancabermeja - CO;7.06528; -73.85472;America/Bogota
1264621;Madanapalle - IN;13.5503; 78.50288;Asia/Kolkata
3469058;Brasilia - BR;-15.77972; -47.92972;America/Sao_Paulo
1173055;Kotli - PK;33.51836; 73.9022;Asia/Karachi
1708522;Koronadal - PH;6.50306; 124.84694;Asia/Manila
2417786;Maneah - GN;9.73333; -13.41667;Africa/Conakry
1802420;Longshui - CN;29.56555; 105.76205;Asia/Shanghai
2805615;Wuerzburg - DE;49.79391; 9.95121;Europe/Berlin
2820256;Ulm - DE;48.39841; 9.99155;Europe/Berlin
3493032;San Pedro de Macoris - DO;18.4539; -69.30864;America/Santo_Domingo
8533870;Saint-Quentin-en-Yvelines - FR;48.77186; 2.01891;Europe/Paris
764484;Mokotow - PL;52.1934; 21.03487;Europe/Warsaw
1848313;Yokosuka - JP;35.28361; 139.66722;Asia/Tokyo
1264543;Madhyamgram - IN;22.68944; 88.44594;Asia/Kolkata
2329821;Mubi - NG;10.26858; 13.26701;Africa/Lagos
7628416;Sultangazi - TR;41.10652; 28.86847;Europe/Istanbul
750269;Bursa - TR;40.19559; 29.06013;Europe/Istanbul
3673662;Ocana - CO;8.23773; -73.35604;America/Bogota
5367929;Long Beach - US;33.76696; -118.18923;America/Los_Angeles
3628503;San Carlos - VE;9.66124; -68.58268;America/Caracas
2035610;Nehe - CN;48.4793; 124.87016;Asia/Shanghai
1268257;Kamarhati - IN;22.67111; 88.37472;Asia/Kolkata
308464;Kayseri - TR;38.73222; 35.48528;Europe/Istanbul
4273837;Kansas City - US;39.11417; -94.62746;America/Chicago
1226260;Trincomalee - LK;8.5778; 81.2289;Asia/Colombo
287286;Muscat - OM;23.58413; 58.40778;Asia/Muscat
267008;Tyre - LB;33.27333; 35.19389;Asia/Beirut
130802;Ilam - IR;33.6374; 46.4227;Asia/Tehran
1500973;Kyzyl - RU;51.71081; 94.45338;Asia/Krasnoyarsk
1791056;Dongyang - CN;29.26778; 120.22528;Asia/Shanghai
4005509;Guadalupe - MX;22.74753; -102.51874;America/Mexico_City
473249;Vladikavkaz - RU;43.03667; 44.66778;Europe/Moscow
8504960;Centralniy - RU;59.93111; 30.36072;Europe/Moscow
4174715;Tallahassee - US;30.43826; -84.28073;America/New_York
350789;Qalyub - EG;30.17922; 31.2056;Africa/Cairo
3627047;Santa Teresa del Tuy - VE;10.23291; -66.66474;America/Caracas
1626932;Singaraja - ID;-8.112; 115.08818;Asia/Makassar
1642858;Jambi City - ID;-1.6; 103.61667;Asia/Jakarta
1648580;Blitar - ID;-8.0983; 112.1681;Asia/Jakarta
1796068;Shangluo - CN;33.86667; 109.93056;Asia/Shanghai
2037860;Daqing - CN;46.58333; 125.0;Asia/Shanghai
7279570;Higashimurayama - JP;35.75459; 139.46852;Asia/Tokyo
11611478;Yamato - JP;35.47276; 139.45101;Asia/Tokyo
160961;Bukoba - TZ;-1.33167; 31.81222;Africa/Dar_es_Salaam
2366152;Kara - TG;9.55111; 1.18611;Africa/Lome
9181182;Puyang - CN;35.76318; 115.01721;Asia/Shanghai
2646003;Islington - GB;51.53622; -0.10304;Europe/London
6318694;Simoes Filho - BR;-12.78444; -38.40389;America/Bahia
1252942;Wardha - IN;20.73933; 78.59784;Asia/Kolkata
1264521;Madurai - IN;9.919; 78.11953;Asia/Kolkata
1166548;Sahiwal - PK;30.66595; 73.10186;Asia/Karachi
12324556;Shizuishan - CN;38.98082; 106.3892;Asia/Shanghai
2852566;Porz am Rhein - DE;50.88637; 7.0583;Europe/Berlin
1264115;Malegaon - IN;20.54966; 74.53462;Asia/Kolkata
1638868;Labuan Bajo - ID;-8.4964; 119.8877;Asia/Makassar
1500665;Leninsk-Kuznetsky - RU;54.6567; 86.1737;Asia/Novokuznetsk
712451;Berdyansk - UA;46.75578; 36.78815;Europe/Kyiv
6611854;Nay Pyi Taw - MM;19.745; 96.12972;Asia/Yangon
3101619;Chorzow - PL;50.30582; 18.9742;Europe/Warsaw
1809061;Jiaojiang - CN;28.69844; 121.47331;Asia/Shanghai
2500017;Djelfa - DZ;34.67279; 3.263;Africa/Algiers
2505653;Baraki - DZ;36.66655; 3.09606;Africa/Algiers
3489854;Kingston - JM;17.99702; -76.79358;America/Jamaica
1633037;Palopo - ID;-2.9925; 120.19694;Asia/Makassar
7627067;Bahcelievler - TR;41.00231; 28.8598;Europe/Istanbul
4004898;Hermosillo - MX;29.1026; -110.97732;America/Hermosillo
1732869;Muar - MY;2.0442; 102.5689;Asia/Kuala_Lumpur
3870011;Temuco - CL;-38.73965; -72.59842;America/Santiago
1790645;Xiamen - CN;24.47979; 118.08187;Asia/Shanghai
1801180;Maoming - CN;21.66625; 110.91364;Asia/Shanghai
4005539;Guadalajara - MX;20.66682; -103.39182;America/Mexico_City
1624863;Tanjung Pinang - ID;0.91667; 104.45833;Asia/Jakarta
1263834;Mandsaur - IN;24.07184; 75.06986;Asia/Kolkata
1857550;Matsue - JP;35.48333; 133.05;Asia/Tokyo
2495662;Guelma - DZ;36.46214; 7.42608;Africa/Algiers
3631412;Ocumare del Tuy - VE;10.1182; -66.77513;America/Caracas
2130203;Hachinohe - JP;40.5; 141.5;Asia/Tokyo
1273780;Cuttack - IN;20.46497; 85.87927;Asia/Kolkata
918702;Chipata - ZM;-13.63333; 32.65;Africa/Lusaka
281133;Gaza - PS;31.50161; 34.46672;Asia/Gaza
3427833;Tandil - AR;-37.3287; -59.1369;America/Argentina/Buenos_Aires
5014051;Warren - US;42.49044; -83.01304;America/Detroit
3568342;Arroyo Naranjo - CU;23.03811; -82.37703;America/Havana
353225;Madinat an Nasr - EG;30.06667; 31.3;Africa/Cairo
2290964;Bouafle - CI;6.99041; -5.7442;Africa/Abidjan
1261913;Nangloi Jat - IN;28.67957; 77.06799;Asia/Kolkata
112646;Torbat-e Heydariyeh - IR;35.27401; 59.21949;Asia/Tehran
124665;Mashhad - IR;36.29807; 59.60567;Asia/Tehran
99135;Kufa - IQ;32.05114; 44.44017;Asia/Baghdad
4560349;Philadelphia - US;39.95238; -75.16362;America/New_York
2870221;Moers - DE;51.45342; 6.6326;Europe/Berlin
1852225;Shimonoseki - JP;33.95548; 130.93713;Asia/Tokyo
2172517;Canberra - AU;-35.28346; 149.12807;Australia/Sydney
724443;Kosice - SK;48.71395; 21.25808;Europe/Bratislava
314830;Gaziantep - TR;37.05944; 37.3825;Europe/Istanbul
230166;Lira - UG;2.2499; 32.89985;Africa/Kampala
503550;Pyatigorsk - RU;44.05; 43.05036;Europe/Moscow
582432;Al'met'yevsk - RU;54.90442; 52.3154;Europe/Moscow
1812228;Dongtai - CN;32.85231; 120.30947;Asia/Shanghai
1628884;Sampit - ID;-2.5315; 112.9496;Asia/Pontianak
737071;Zeytinburnu - TR;40.99441; 28.90417;Europe/Istanbul
670889;Piatra Neamt - RO;46.91667; 26.33333;Europe/Bucharest
4068590;Huntsville - US;34.7304; -86.58594;America/Chicago
1735158;Petaling Jaya - MY;3.10726; 101.60671;Asia/Kuala_Lumpur
276781;Beirut - LB;33.89332; 35.50157;Asia/Beirut
2637627;Slough - GB;51.50949; -0.59541;Europe/London
2638671;Salford - GB;53.48771; -2.29042;Europe/London
3169921;Prato - IT;43.8805; 11.09699;Europe/Rome
1518262;Temirtau - KZ;50.05197; 72.95497;Asia/Almaty
1290596;Taungoo - MM;18.94291; 96.43408;Asia/Yangon
3531023;Chetumal - MX;18.51413; -88.30381;America/Cancun
2304848;Amanfrom - GH;5.53532; -0.39827;Africa/Accra
4710178;McKinney - US;33.19762; -96.61527;America/Chicago
1811103;Foshan - CN;23.02677; 113.13148;Asia/Shanghai
215771;Isiro - CD;2.77391; 27.61603;Africa/Lubumbashi
1636544;Manado - ID;1.48218; 124.84892;Asia/Makassar
1283339;Hetauda - NP;27.42839; 85.03219;Asia/Kathmandu
5393015;Santa Clara - US;37.35411; -121.95524;America/Los_Angeles
3451328;Ribeirao Preto - BR;-21.1775; -47.81028;America/Sao_Paulo
536164;Tsaritsyno - RU;55.6254; 37.65032;Europe/Moscow
2323411;Shagamu - NG;6.8485; 3.64633;Africa/Lagos
1176615;Islamabad - PK;33.72148; 73.04329;Asia/Karachi
1489530;Tobolsk - RU;58.19807; 68.25457;Asia/Yekaterinburg
2995469;Marseille - FR;43.29695; 5.38107;Europe/Paris
665004;Targu-Mures - RO;46.54245; 24.55747;Europe/Bucharest
4644312;Murfreesboro - US;35.84562; -86.39027;America/Chicago
2291136;Bondoukou - CI;8.0402; -2.80003;Africa/Abidjan
1842025;Gunsan - KR;35.97861; 126.71139;Asia/Seoul
2389853;Bangui - CF;4.36122; 18.55496;Africa/Bangui
1783763;Zhuzhou - CN;27.83333; 113.15;Asia/Shanghai
2034937;Shenyang - CN;41.79222; 123.43278;Asia/Shanghai
1668875;Shulin - TW;24.99085; 121.42199;Asia/Taipei
532288;Magnitogorsk - RU;53.41861; 59.04722;Asia/Yekaterinburg
8504948;Petrogradka - RU;59.96567; 30.31154;Europe/Moscow
338832;Dire Dawa - ET;9.59306; 41.86611;Africa/Addis_Ababa
3827408;Miguel Hidalgo - MX;19.43411; -99.20024;America/Mexico_City
1261258;Nizamabad - IN;18.67154; 78.0988;Asia/Kolkata
1277780;Baidyabati - IN;22.78498; 88.32586;Asia/Kolkata
3487903;Alto Barinas - VE;8.5931; -70.2261;America/Caracas
1786640;Chengzhong - CN;30.94454; 113.55284;Asia/Shanghai
3407327;Arapiraca - BR;-9.7525; -36.66111;America/Maceio
7931934;Kitengela - KE;-1.47612; 36.96144;Africa/Nairobi
1262995;Mirzapur - IN;25.1449; 82.56534;Asia/Kolkata
1797595;Qinhuangdao - CN;39.93167; 119.58833;Asia/Shanghai
2949186;Bielefeld - DE;52.03333; 8.53333;Europe/Berlin
343663;Arba Minch - ET;6.03333; 37.55;Africa/Addis_Ababa
1839652;Osan - KR;37.15222; 127.07056;Asia/Seoul
2038365;Bei'an - CN;48.26667; 126.6;Asia/Shanghai
2596934;Seguela - CI;7.96111; -6.67306;Africa/Abidjan
1817993;Anqing - CN;30.51365; 117.04723;Asia/Shanghai
6059891;Longueuil - CA;45.5152; -73.46818;America/Toronto
3980760;Uruapan - MX;19.41116; -102.05644;America/Mexico_City
3394023;Natal - BR;-5.795; -35.20944;America/Fortaleza
2507480;Algiers - DZ;36.73225; 3.08746;Africa/Algiers
2112312;Katsuta - JP;36.38333; 140.53333;Asia/Tokyo
12157013;San Francisco De Borja - PE;-12.08911; -76.99876;America/Lima
3675595;Malambo - CO;10.85953; -74.77386;America/Bogota
1571058;Phan Thiet - VN;10.92889; 108.10208;Asia/Ho_Chi_Minh
2987914;Perpignan - FR;42.69764; 2.89541;Europe/Paris
2911293;Eimsbuettel - DE;53.57416; 9.95679;Europe/Berlin
3868121;Vina del Mar - CL;-33.02457; -71.55183;America/Santiago
2646277;Ilford - GB;51.55765; 0.07278;Europe/London
2331140;Makurdi - NG;7.73375; 8.52139;Africa/Lagos
3403642;Campina Grande - BR;-7.23056; -35.88111;America/Fortaleza
3448877;Sao Joao de Meriti - BR;-22.80389; -43.37222;America/Sao_Paulo
3928245;Santiago de Surco - PE;-12.13588; -77.00742;America/Lima
3941584;Cusco - PE;-13.52264; -71.96734;America/Lima
607610;Zhanaozen - KZ;43.34116; 52.86192;Asia/Aqtau
246013;Wadi as Sir - JO;31.9545; 35.81831;Asia/Amman
3458498;Linhares - BR;-19.39111; -40.07222;America/Sao_Paulo
3463478;Feira de Santana - BR;-12.26667; -38.96667;America/Bahia
3874960;Puerto Montt - CL;-41.4693; -72.94237;America/Santiago
3835994;Santa Rosa - AR;-36.61667; -64.28333;America/Argentina/Salta
12358616;Yintai - CN;35.11524; 109.09702;Asia/Shanghai
3682631;Envigado - CO;6.17591; -75.59174;America/Bogota
2295458;Sekondi-Takoradi - GH;4.92678; -1.75773;Africa/Accra
6544494;Madrid Centro - ES;40.41831; -3.70275;Europe/Madrid
1514896;Isfara - TJ;40.12649; 70.62526;Asia/Dushanbe
364103;Wad Medani - SD;14.40118; 33.51989;Africa/Khartoum
12253704;Phu Quoc - VN;10.28715; 104.01047;Asia/Ho_Chi_Minh
910111;Livingstone - ZM;-17.84194; 25.85425;Africa/Lusaka
323779;Antakya - TR;36.20655; 36.15722;Europe/Istanbul
703448;Kyiv - UA;50.45466; 30.5238;Europe/Kyiv
2911288;Hamburg-Mitte - DE;53.55; 10.01667;Europe/Berlin
1815059;Chenzhou - CN;25.8; 113.03333;Asia/Shanghai
3598119;Coban - GT;15.47083; -90.37083;America/Guatemala
1213500;Tebingtinggi - ID;3.3285; 99.1625;Asia/Jakarta
1860871;Kadoma - JP;34.7381; 135.57442;Asia/Tokyo
706369;Khmelnytskyi - UA;49.41835; 26.97936;Europe/Kyiv
1529363;Kuqa - CN;41.71707; 82.93064;Asia/Urumqi
1802276;Longyan - CN;25.07485; 117.01775;Asia/Shanghai
3458449;Londrina - BR;-23.31028; -51.16278;America/Sao_Paulo
3461311;Indaiatuba - BR;-23.08842; -47.2119;America/Sao_Paulo
1253084;Vizianagaram - IN;18.11692; 83.41148;Asia/Kolkata
1253184;Vijayawada - IN;16.50745; 80.6466;Asia/Kolkata
112931;Tehran - IR;35.69439; 51.42151;Asia/Tehran
3451190;Rio de Janeiro - BR;-22.90642; -43.18223;America/Sao_Paulo
1140026;Herat - AF;34.34817; 62.19967;Asia/Kabul
8504953;Admiralteisky - RU;59.923; 30.3;Europe/Moscow
3454783;Patos de Minas - BR;-18.57889; -46.51806;America/Sao_Paulo
1497543;Nizhnevartovsk - RU;60.9344; 76.5531;Asia/Yekaterinburg
1170880;Mardan - PK;34.19794; 72.04965;Asia/Karachi
5385955;Rancho Cucamonga - US;34.1064; -117.59311;America/Los_Angeles
87205;Darnah - LY;32.76704; 22.63669;Africa/Tripoli
1259009;Raiganj - IN;25.61281; 88.12449;Asia/Kolkata
6941055;Bochum-Hordel - DE;51.50168; 7.1756;Europe/Berlin
1261669;Navadwip - IN;23.4067; 88.36861;Asia/Kolkata
1794371;Shuizhai - CN;23.92961; 115.76499;Asia/Shanghai
1797121;Jieyang - CN;23.5418; 116.36581;Asia/Shanghai
3553478;Havana - CU;23.13302; -82.38304;America/Havana
3449319;Sao Carlos - BR;-22.0175; -47.89083;America/Sao_Paulo
2281606;Sinfra - CI;6.62103; -5.91144;Africa/Abidjan
6955677;Cankaya - TR;39.9179; 32.86268;Europe/Istanbul
601734;Dasoguz - TM;41.83625; 59.96661;Asia/Ashgabat
1884138;Yeosu - KR;34.76062; 127.66215;Asia/Seoul
2362909;Banfora - BF;10.63333; -4.76667;Africa/Ouagadougou
4013704;Ciudad Obregon - MX;27.48642; -109.94083;America/Hermosillo
2750053;Nijmegen - NL;51.8425; 5.85278;Europe/Amsterdam
1861212;Iwakuni - JP;34.16297; 132.22;Asia/Tokyo
3182351;Bari - IT;41.12066; 16.86982;Europe/Rome
1638284;Lawang - ID;-7.8353; 112.6947;Asia/Jakarta
1257540;Sambhal - IN;28.58498; 78.56959;Asia/Kolkata
1276856;Barsi - IN;18.23454; 75.69275;Asia/Kolkata
11523293;Sejong - KR;36.59245; 127.29223;Asia/Seoul
3397838;Jaboatao - BR;-8.18028; -35.00139;America/Recife
3351663;Benguela - AO;-12.57626; 13.40547;Africa/Luanda
1580830;Hoa Binh - VN;20.81717; 105.33759;Asia/Bangkok
1141269;Ghazni - AF;33.55391; 68.42096;Asia/Kabul
3204541;Banja Luka - BA;44.77842; 17.19386;Europe/Sarajevo
1818483;Tsing Yi Town - HK;22.35; 114.1;Asia/Hong_Kong
2216349;Janzur - LY;32.81868; 13.01727;Africa/Tripoli
1640660;Kediri - ID;-7.81667; 112.01667;Asia/Jakarta
1266285;Kolhapur - IN;16.69563; 74.23167;Asia/Kolkata
2250805;Kaolack - SN;14.15197; -16.07259;Africa/Dakar
1853483;Oyama - JP;36.3; 139.8;Asia/Tokyo
8740017;Gadag-Betageri - IN;15.4167; 75.6167;Asia/Kolkata
2350841;Akure - NG;7.25256; 5.19312;Africa/Lagos
1848689;Yamaguchi - JP;34.18333; 131.46667;Asia/Tokyo
2341374;Gboko - NG;7.32275; 9.00108;Africa/Lagos
4998830;Lansing - US;42.73253; -84.55553;America/Detroit
1162004;Khairpur Mir's - PK;27.52948; 68.75915;Asia/Karachi
7303419;East Jerusalem - PS;31.78336; 35.23388;Asia/Hebron
2468369;Gabes - TN;33.88146; 10.0982;Africa/Tunis
2874545;Magdeburg - DE;52.12773; 11.62916;Europe/Berlin
6544490;Usera - ES;40.38866; -3.70035;Europe/Madrid
1700360;Mati - PH;6.95508; 126.21655;Asia/Manila
2347059;Birnin Kebbi - NG;12.45389; 4.1975;Africa/Lagos
379149;Al Manaqil - SD;14.2459; 32.9891;Africa/Khartoum
5404794;Universal City - US;34.1389; -118.35341;America/Los_Angeles
5427946;Lakewood - US;39.70471; -105.08137;America/Denver
12042053;Musaffah - AE;24.35893; 54.48267;Asia/Dubai
2213618;Qasr Bin Ghashir - LY;32.68333; 13.18333;Africa/Tripoli
3461144;Ipatinga - BR;-19.46833; -42.53667;America/Sao_Paulo
2911240;Hamm - DE;51.68033; 7.82089;Europe/Berlin
2887933;Kleinzschocher - DE;51.31568; 12.31979;Europe/Berlin
2490098;Mascara - DZ;35.39664; 0.14027;Africa/Algiers
1631393;Prabumulih - ID;-3.43447; 104.23056;Asia/Jakarta
1605239;Udon Thani - TH;17.41567; 102.78589;Asia/Bangkok
1675393;Xizhi - TW;25.06615; 121.65985;Asia/Taipei
2035669;Lianhe - CN;47.13333; 129.27426;Asia/Shanghai
7064006;Tongchuan - CN;34.8988; 108.95056;Asia/Shanghai
2905891;Herne - DE;51.5388; 7.22572;Europe/Berlin
3652567;Quevedo - EC;-1.02863; -79.46352;America/Guayaquil
1786657;Yinchuan - CN;38.46806; 106.27306;Asia/Shanghai
2634838;Walthamstow - GB;51.59067; -0.02077;Europe/London
1810979;Fuling - CN;29.70997; 107.39391;Asia/Shanghai
3723779;Jacmel - HT;18.23427; -72.53539;America/Port-au-Prince
1626801;Situbondo - ID;-7.70623; 114.00976;Asia/Jakarta
1646698;Cikampek - ID;-6.41972; 107.45583;Asia/Jakarta
1882316;Woodlands - SG;1.43801; 103.78877;Asia/Singapore
3181928;Bologna - IT;44.49381; 11.33875;Europe/Rome
4005143;Heroica Guaymas - MX;27.91928; -110.89755;America/Hermosillo
2441291;Maradi - NE;13.5; 7.10174;Africa/Niamey
5145476;Akron - US;41.08144; -81.51901;America/New_York
3874787;Punta Arenas - CL;-53.15483; -70.91129;America/Punta_Arenas
172955;Ar Raqqah - SY;35.95283; 39.00788;Asia/Damascus
498817;Saint Petersburg - RU;59.93863; 30.31413;Europe/Moscow
1732903;Shah Alam - MY;3.08507; 101.53281;Asia/Kuala_Lumpur
1277397;Banda - IN;25.47758; 80.33491;Asia/Kolkata
8629640;Thoothukudi - IN;8.76735; 78.13425;Asia/Kolkata
2800481;Charleroi - BE;50.41136; 4.44448;Europe/Brussels
3688451;Buenaventura - CO;3.8801; -77.03116;America/Bogota
2867543;Muenster - DE;51.96236; 7.62571;Europe/Berlin
1649881;Batang - ID;-6.4846; 110.7083;Asia/Jakarta
484972;Syzran - RU;53.1585; 48.4681;Europe/Samara
3672778;Pasto - CO;1.21361; -77.28111;America/Bogota
3452925;Porto Alegre - BR;-30.03283; -51.23019;America/Sao_Paulo
3168673;Salerno - IT;40.67545; 14.79328;Europe/Rome
3727135;Croix-des-Bouquets - HT;18.57677; -72.22625;America/Port-au-Prince
1671566;Nantou - TW;23.91566; 120.66387;Asia/Taipei
4762894;Hampton - US;37.02987; -76.34522;America/New_York
6058560;London - CA;42.98339; -81.23304;America/Toronto
2347470;Bauchi - NG;10.31032; 9.84388;Africa/Lagos
5401395;Temecula - US;33.49364; -117.14836;America/Los_Angeles
1978681;Malingao - PH;7.16083; 124.475;Asia/Manila
4049979;Birmingham - US;33.52066; -86.80249;America/Chicago
1588275;Bao Loc - VN;11.54798; 107.80772;Asia/Ho_Chi_Minh
2294665;Teshi Old Town - GH;5.58365; -0.10722;Africa/Accra
1256287;Silchar - IN;24.82733; 92.79787;Asia/Kolkata
1808198;Heze - CN;35.23929; 115.47358;Asia/Shanghai
3567597;Bayamo - CU;20.37417; -76.64361;America/Havana
3460598;Itatiba - BR;-23.00583; -46.83889;America/Sao_Paulo
3183539;Acilia-Castel Fusano-Ostia Antica - IT;41.76337; 12.33078;Europe/Rome
6992326;Mohali - IN;30.67995; 76.72211;Asia/Kolkata
1849372;Uji - JP;34.89044; 135.80325;Asia/Tokyo
1181073;Chishtian - PK;29.79713; 72.85772;Asia/Karachi
285839;Al Ahmadi - KW;29.07694; 48.08389;Asia/Kuwait
1821940;Takeo - KH;10.99081; 104.78498;Asia/Phnom_Penh
7602670;Zhu Cheng City - CN;35.99502; 119.40259;Asia/Shanghai
1273467;Darjiling - IN;27.03333; 88.26667;Asia/Kolkata
3646382;Carupano - VE;10.66516; -63.25387;America/Caracas
1270926;Gorakhpur - IN;29.44768; 75.67206;Asia/Kolkata
150006;Shinyanga - TZ;-3.66393; 33.42118;Africa/Dar_es_Salaam
1800163;Nanchang - CN;28.68396; 115.85306;Asia/Shanghai
1269937;Hoshiarpur - IN;31.53723; 75.91269;Asia/Kolkata
1648473;Bogor - ID;-6.59444; 106.78917;Asia/Jakarta
2636503;Sutton - GB;51.35; -0.2;Europe/London
2328952;Nguru - NG;12.87695; 10.45536;Africa/Lagos
3392740;Paulista - BR;-7.94083; -34.87306;America/Recife
6137270;Saguenay - CA;48.41675; -71.06573;America/Toronto
1270994;Gondal - IN;21.96074; 70.80255;Asia/Kolkata
1277013;Bareilly - IN;28.36678; 79.43167;Asia/Kolkata
1267708;Karnal - IN;29.69197; 76.98448;Asia/Kolkata
12261477;Amaravati - IN;16.514; 80.516;Asia/Kolkata
584923;Sumqayit - AZ;40.58972; 49.66861;Asia/Baku
187896;Mandera - KE;3.93726; 41.85688;Africa/Nairobi
7628420;Sancaktepe - TR;41.00244; 29.23187;Europe/Istanbul
3171457;Parma - IT;44.79935; 10.32618;Europe/Rome
2374775;Bissau - GW;11.86357; -15.59767;Africa/Bissau
1268936;Jhunjhunun - IN;28.12559; 75.39797;Asia/Kolkata
1278860;Ambala - IN;30.36099; 76.79782;Asia/Kolkata
585514;Mingelchaur - AZ;40.76395; 47.05953;Asia/Baku
2325314;Owo - NG;7.1962; 5.58681;Africa/Lagos
12358476;Hechi - CN;24.69285; 108.08376;Asia/Shanghai
1807689;Huaihua - CN;27.56337; 110.00404;Asia/Shanghai
3451329;Ribeirao Pires - BR;-23.71056; -46.41333;America/Sao_Paulo
3460718;Itapevi - BR;-23.54889; -46.93417;America/Sao_Paulo
89113;Ajdabiya - LY;30.75545; 20.22625;Africa/Tripoli
548408;Kirov - RU;58.59665; 49.66007;Europe/Kirov
675810;Iasi - RO;47.16667; 27.6;Europe/Bucharest
1858088;Kurume - JP;33.31667; 130.51667;Asia/Tokyo
1787858;Shangrao - CN;28.45179; 117.94287;Asia/Shanghai
2035644;Nanpiao - CN;41.09822; 120.74792;Asia/Shanghai
1215355;Binjai - ID;3.6001; 98.4854;Asia/Jakarta
1682812;Tarlac City - PH;15.48017; 120.59794;Asia/Manila
2338900;Ile-Ife - NG;7.4824; 4.56032;Africa/Lagos
463829;Zelenograd - RU;55.9825; 37.18139;Europe/Moscow
1815302;Chenghua - CN;23.46132; 116.77007;Asia/Shanghai
3667905;Soacha - CO;4.57937; -74.21682;America/Bogota
2479215;Souk Ahras - DZ;36.28639; 7.95111;Africa/Algiers
2051523;Bratsk - RU;56.1325; 101.61417;Asia/Irkutsk
569154;Cherkessk - RU;44.22333; 42.05778;Europe/Moscow
3461563;Ibirite - BR;-20.02194; -44.05889;America/Sao_Paulo
1262131;Naihati - IN;22.89396; 88.41521;Asia/Kolkata
4645421;New South Memphis - US;35.08676; -90.05676;America/Chicago
1694781;Paranaque City - PH;14.48156; 121.01749;Asia/Manila
1701472;Mantampay - PH;8.16667; 124.21667;Asia/Manila
1256523;Shillong - IN;25.56892; 91.88313;Asia/Kolkata
1264733;Lucknow - IN;26.83928; 80.92313;Asia/Kolkata
2228373;Maroua - CM;10.59095; 14.31593;Africa/Douala
2037069;Hailun - CN;47.44663; 126.92475;Asia/Shanghai
1842485;Goyang-si - KR;37.65639; 126.835;Asia/Seoul
1626560;Soreang - ID;-7.03306; 107.51833;Asia/Jakarta
1276032;Bhavnagar - IN;21.76287; 72.15331;Asia/Kolkata
3836669;San Rafael - AR;-34.61531; -68.33238;America/Argentina/Mendoza
1178231;Gojra - PK;31.14926; 72.68323;Asia/Karachi
3486270;Anaco - VE;9.42958; -64.46428;America/Caracas
1726280;Batangas - PH;13.7567; 121.0584;Asia/Manila
3456223;Nossa Senhora do Socorro - BR;-10.855; -37.12611;America/Maceio
3460791;Itanhaem - BR;-24.18306; -46.78889;America/Sao_Paulo
1271912;Fatehpur - IN;25.92774; 80.81266;Asia/Kolkata
187968;Malindi - KE;-3.21799; 40.11692;Africa/Nairobi
3530139;Coyoacan - MX;19.3467; -99.16174;America/Mexico_City
3979802;Zamora - MX;19.9855; -102.28387;America/Mexico_City
1865714;Ageoshimo - JP;35.97145; 139.61382;Asia/Tokyo
2330100;Minna - NG;9.61524; 6.54776;Africa/Lagos
8764562;Diepsloot - ZA;-25.93312; 28.01213;Africa/Johannesburg
1270642;Gurgaon - IN;28.4601; 77.02635;Asia/Kolkata
2945756;Bottrop - DE;51.52392; 6.9285;Europe/Berlin
2286304;Korhogo - CI;9.45803; -5.62961;Africa/Abidjan
12157007;Santa Anita - Los Ficus - PE;-12.05048; -76.97335;America/Lima
3445782;Umuarama - BR;-23.76639; -53.325;America/Sao_Paulo
3439389;Asuncion - PY;-25.28646; -57.647;America/Asuncion
580724;Arzamas - RU;55.39563; 43.8381;Europe/Moscow
702550;Lviv - UA;49.83826; 24.02324;Europe/Kyiv
4149962;Cape Coral - US;26.56285; -81.94953;America/New_York
295620;Ashkelon - IL;31.66926; 34.57149;Asia/Jerusalem
1259312;Proddatur - IN;14.7502; 78.54813;Asia/Kolkata
128226;Kermanshah - IR;34.31417; 47.065;Asia/Tehran
1856215;Nagano - JP;36.65; 138.18333;Asia/Tokyo
361329;Al Fashn - EG;28.82306; 30.89903;Africa/Cairo
1832828;Yangsan - KR;35.34199; 129.03358;Asia/Seoul
2377457;Nouadhibou - MR;20.94188; -17.03842;Africa/Nouakchott
1263220;Medinipur - IN;22.42114; 87.32257;Asia/Kolkata
1733953;Lahad Datu - MY;5.02298; 118.32897;Asia/Kuching
3936456;Lima - PE;-12.04318; -77.02824;America/Lima
3515001;Tuxtla - MX;16.75973; -93.11308;America/Mexico_City
1182092;Burewala - PK;30.16667; 72.65;Asia/Karachi
1688253;Santa Cruz - PH;14.2814; 121.4161;Asia/Manila
3083271;Torun - PL;53.01375; 18.59814;Europe/Warsaw
2694762;Linkoeping - SE;58.41086; 15.62157;Europe/Stockholm
8074174;Muratpasa - TR;36.89157; 30.76498;Europe/Istanbul
1854383;Okayama - JP;34.65; 133.93333;Asia/Tokyo
1221194;Kulob - TJ;37.91459; 69.78454;Asia/Dushanbe
347591;Talkha - EG;31.0539; 31.37787;Africa/Cairo
3836564;San Salvador de Jujuy - AR;-24.19457; -65.29712;America/Argentina/Jujuy
1527534;Osh - KG;40.52828; 72.7985;Asia/Bishkek
2756669;Dordrecht - NL;51.81; 4.67361;Europe/Amsterdam
2229748;Kumbo - CM;6.2; 10.66667;Africa/Douala
1799397;Ningbo - CN;29.87819; 121.54945;Asia/Shanghai
745169;Inegol - TR;40.07806; 29.51333;Europe/Istanbul
1272175;Durgapur - IN;23.51583; 87.30801;Asia/Kolkata
3514663;Alvaro Obregon - MX;19.35867; -99.20329;America/Mexico_City
1169607;Muzaffarabad - PK;34.37002; 73.47082;Asia/Karachi
1862540;Hirakata - JP;34.81352; 135.64914;Asia/Tokyo
1815577;Changsha - CN;28.19874; 112.97087;Asia/Shanghai
146384;Limassol - CY;34.68406; 33.03794;Asia/Nicosia
6182962;Windsor - CA;42.30008; -83.01654;America/Toronto
2657832;Aberdeen - GB;57.14369; -2.09814;Europe/London
1856977;Mishima - JP;35.11667; 138.91667;Asia/Tokyo
3513090;Willemstad - CW;12.12246; -68.88641;America/Curacao
3402655;Caruaru - BR;-8.28333; -35.97611;America/Recife
3454857;Passo Fundo - BR;-28.26278; -52.40667;America/Sao_Paulo
3464739;Diadema - BR;-23.68611; -46.62278;America/Sao_Paulo
2155472;Newcastle - AU;-32.92953; 151.7801;Australia/Sydney
1261977;Nanded - IN;19.16023; 77.31497;Asia/Kolkata
12165956;Kallakurichi - IN;11.73379; 78.95925;Asia/Kolkata
1526273;Astana - KZ;51.1801; 71.44598;Asia/Almaty
5402405;Thousand Oaks - US;34.17056; -118.83759;America/Los_Angeles
1706090;Lipa City - PH;13.9411; 121.1631;Asia/Manila
1166993;Rawalpindi - PK;33.59733; 73.0479;Asia/Karachi
2218970;Az Zawiyah - LY;32.7571; 12.72764;Africa/Tripoli
3463422;Ferraz de Vasconcelos - BR;-23.54083; -46.36861;America/Sao_Paulo
2636486;Sutton Coldfield - GB;52.56667; -1.81667;Europe/London
1269321;Jammu - IN;32.73528; 74.86167;Asia/Kolkata
1167528;Quetta - PK;30.18414; 67.00141;Asia/Karachi
2514169;Marbella - ES;36.51543; -4.88583;Europe/Madrid
2928810;Essen - DE;51.45657; 7.01228;Europe/Berlin
4693003;Garland - US;32.91262; -96.63888;America/Chicago
1855189;Nishio - JP;34.86667; 137.05;Asia/Tokyo
683902;Braila - RO;45.27152; 27.97429;Europe/Bucharest
890422;Gweru - ZW;-19.45; 29.81667;Africa/Harare
1573517;Nam GJinh - VN;20.43389; 106.17729;Asia/Bangkok
1785018;Zhangzhou - CN;24.51333; 117.65556;Asia/Shanghai
2229411;Limbe - CM;4.02356; 9.20607;Africa/Douala
3564436;Cerro - CU;23.10809; -82.3866;America/Havana
1218667;Mary - TM;37.59378; 61.83031;Asia/Ashgabat
2852458;Potsdam - DE;52.39886; 13.06566;Europe/Berlin
1219649;Turkmenabat - TM;39.07328; 63.57861;Asia/Ashgabat
2129537;Kitami - JP;43.80306; 143.89083;Asia/Tokyo
6545326;Ursynow - PL;52.15051; 21.05041;Europe/Warsaw
1255947;Sivakasi - IN;9.44999; 77.79797;Asia/Kolkata
5405693;Van Nuys - US;34.18667; -118.44897;America/Los_Angeles
694423;Sevastopol - UA;44.60795; 33.52134;Europe/Simferopol
255274;Piraeus - GR;37.94203; 23.64619;Europe/Athens
1273800;Kadapa - IN;14.47995; 78.82346;Asia/Kolkata
5511077;Reno - US;39.52963; -119.8138;America/Los_Angeles
5407933;West Covina - US;34.06862; -117.93895;America/Los_Angeles
1721080;Cagayan de Oro - PH;8.48222; 124.64722;Asia/Manila
1269280;Jamuria - IN;23.70468; 87.07872;Asia/Kolkata
1254163;Thiruvananthapuram - IN;8.4855; 76.94924;Asia/Kolkata
1627549;Serang - ID;-6.11528; 106.15417;Asia/Jakarta
3632998;Maracay - VE;10.23535; -67.59113;America/Caracas
1850181;Tokorozawa - JP;35.79916; 139.46903;Asia/Tokyo
1849519;Tsuyama - JP;35.05215; 133.99885;Asia/Tokyo
1853677;Ota - JP;36.3; 139.36667;Asia/Tokyo
1734705;Kuala Terengganu - MY;5.3302; 103.1408;Asia/Kuala_Lumpur
2341656;Gashua - NG;12.87398; 11.04057;Africa/Lagos
1815276;Chenggu - CN;33.14917; 107.32583;Asia/Shanghai
3583096;Soyapango - SV;13.71024; -89.13989;America/El_Salvador
3718420;Port-de-Paix - HT;19.93984; -72.83037;America/Port-au-Prince
1260637;Palwal - IN;28.14469; 77.32546;Asia/Kolkata
1277029;Barddhaman - IN;23.25572; 87.85691;Asia/Kolkata
1255491;Sultanpur - IN;26.25788; 82.07269;Asia/Kolkata
3165072;Udine - IT;46.0693; 13.23715;Europe/Rome
1818223;Yuen Long Kau Hui - HK;22.45; 114.03333;Asia/Hong_Kong
1636930;Madiun - ID;-7.6298; 111.5239;Asia/Jakarta
3107784;Torrejon de Ardoz - ES;40.45535; -3.46973;Europe/Madrid
1788450;Xinzhou - CN;38.40917; 112.73333;Asia/Shanghai
1816336;Binzhou - CN;37.36667; 118.01667;Asia/Shanghai
353183;Maghaghah - EG;28.64776; 30.841;Africa/Cairo
360048;Ashmun - EG;30.29735; 30.97641;Africa/Cairo
2327735;Ogbomoso - NG;8.13373; 4.24014;Africa/Lagos
2338325;Ikare - NG;7.52591; 5.75342;Africa/Lagos
3937513;Juliaca - PE;-15.5; -70.13333;America/Lima
1800779;Meizhou - CN;24.28859; 116.11768;Asia/Shanghai
615532;Batumi - GE;41.64228; 41.63392;Asia/Tbilisi
744562;Karabuek - TR;41.20488; 32.62768;Europe/Istanbul
1686547;Silang - PH;14.21567; 120.97137;Asia/Manila
1185241;Dhaka - BD;23.7104; 90.40744;Asia/Dhaka
3629672;Puerto La Cruz - VE;10.21382; -64.6328;America/Caracas
1985663;Cikupa - ID;-6.23639; 106.50833;Asia/Jakarta
1271951;Faridabad - IN;28.41124; 77.31316;Asia/Kolkata
118743;Rasht - IR;37.27611; 49.58862;Asia/Tehran
1863641;Gifu-shi - JP;35.42291; 136.76039;Asia/Tokyo
3085128;Sosnowiec - PL;50.28682; 19.10385;Europe/Warsaw
1821263;Taipa - MO;22.15583; 113.55694;Asia/Macau
6094817;Ottawa - CA;45.41117; -75.69812;America/Toronto
7290466;Pasig City - PH;14.58691; 121.0614;Asia/Manila
1788508;Xinyu - CN;27.80429; 114.93335;Asia/Shanghai
1802204;Luancheng - CN;37.88452; 114.64629;Asia/Shanghai
6325521;Levis - CA;46.80326; -71.17793;America/Toronto
352913;Manfalut - EG;27.3126; 30.96987;Africa/Cairo
361320;Al Fayyum - EG;29.30995; 30.8418;Africa/Cairo
2289549;Duekoue - CI;6.74202; -7.34918;Africa/Abidjan
1272805;Dhaulpur - IN;26.69286; 77.87968;Asia/Kolkata
2325200;Oyo - NG;7.85367; 3.93235;Africa/Lagos
352354;Munuf - EG;30.46597; 30.93199;Africa/Cairo
2765028;Simmering - AT;48.18333; 16.43333;Europe/Vienna
359792;Aswan - EG;24.09082; 32.89942;Africa/Cairo
4575352;Columbia - US;34.00071; -81.03481;America/New_York
5097598;Elizabeth - US;40.66399; -74.2107;America/New_York
3433899;Formosa - AR;-26.18489; -58.17313;America/Argentina/Cordoba
8408334;Qianjiang - CN;29.53284; 108.77478;Asia/Shanghai
1897000;Seongnam-si - KR;37.43861; 127.13778;Asia/Seoul
3522790;Naucalpan de Juarez - MX;19.47851; -99.23963;America/Mexico_City
683844;Brasov - RO;45.64861; 25.60613;Europe/Bucharest
3587345;Apopa - SV;13.80722; -89.17917;America/El_Salvador
2284647;Man - CI;7.41251; -7.55383;Africa/Abidjan
1787331;Zhangjiagang - CN;31.865; 120.53889;Asia/Shanghai
2318123;Yenagoa - NG;4.92675; 6.26764;Africa/Lagos
2028462;Ulan Bator - MN;47.90771; 106.88324;Asia/Ulaanbaatar
412800;Sabah as Salim - KW;29.25722; 48.05722;Asia/Kuwait
1833747;Ulsan - KR;35.53722; 129.31667;Asia/Seoul
89055;Al Bayda' - LY;32.76272; 21.75506;Africa/Tripoli
3996663;Manzanillo - MX;19.11695; -104.34214;America/Mexico_City
2326171;Ondo - NG;7.09316; 4.83528;Africa/Lagos
2998286;Limoges - FR;45.83362; 1.24759;Europe/Paris
4335045;New Orleans - US;29.95465; -90.07507;America/Chicago
1789065;Ankang - CN;32.68; 109.01722;Asia/Shanghai
9072919;Rizhao - CN;35.41414; 119.52908;Asia/Shanghai
1841811;Gwangju - KR;35.15472; 126.91556;Asia/Seoul
1293960;Taunggyi - MM;20.78919; 97.03776;Asia/Yangon
1069129;Antsiranana - MG;-12.31732; 49.29188;Indian/Antananarivo
1274040;Chittaurgarh - IN;24.88963; 74.62403;Asia/Kolkata
2633563;Worcester - GB;52.18935; -2.22001;Europe/London
358269;Dayrut - EG;27.55642; 30.81057;Africa/Cairo
331180;Mek'ele - ET;13.49667; 39.47528;Africa/Addis_Ababa
1650527;Balikpapan - ID;-1.26753; 116.82887;Asia/Makassar
1264637;Machilipatnam - IN;16.18747; 81.13888;Asia/Kolkata
2651621;Dagenham - GB;51.55; 0.16667;Europe/London
1681602;Toledo - PH;10.3773; 123.6386;Asia/Manila
3080165;Zielona Gora - PL;51.93548; 15.50643;Europe/Warsaw
4257227;Evansville - US;37.97476; -87.55585;America/Chicago
2188164;Lower Hutt - NZ;-41.21667; 174.91667;Pacific/Auckland
3173529;Mestre - IT;45.49167; 12.24538;Europe/Rome
11101593;Tung Chung - HK;22.28783; 113.94243;Asia/Hong_Kong
1271850;Gadag - IN;15.42977; 75.62971;Asia/Kolkata
5911606;Burnaby - CA;49.26636; -122.95263;America/Vancouver
217562;Butembo - CD;0.14164; 29.29117;Africa/Lubumbashi
2968254;Villeurbanne - FR;45.76601; 4.8795;Europe/Paris
3471766;Araraquara - BR;-21.79444; -48.17556;America/Sao_Paulo
3472766;Alagoinhas - BR;-12.13556; -38.41917;America/Bahia
360502;Luxor - EG;25.69893; 32.6421;Africa/Cairo
2518559;Elche - ES;38.26218; -0.70107;Europe/Madrid
4641239;Memphis - US;35.14953; -90.04898;America/Chicago
2036776;Huadian - CN;42.96333; 126.74778;Asia/Shanghai
3688465;Bucaramanga - CO;7.12539; -73.1198;America/Bogota
3836277;Santa Fe - AR;-31.64881; -60.70868;America/Argentina/Cordoba
1853303;Saga - JP;33.23333; 130.3;Asia/Tokyo
4155966;Fort Lauderdale - US;26.12231; -80.14338;America/New_York
2653266;Chelmsford - GB;51.73575; 0.46958;Europe/London
7799991;New Cairo - EG;30.03; 31.47;Africa/Cairo
1802171;Kangding - CN;30.00222; 101.9569;Asia/Shanghai
4634946;Knoxville - US;35.96064; -83.92074;America/New_York
3348078;Cuito - AO;-12.38333; 16.93333;Africa/Luanda
147622;Lankaran - AZ;38.75428; 48.85062;Asia/Baku
324190;Alanya - TR;36.54375; 31.99982;Europe/Istanbul
1791325;Wuda - CN;39.49944; 106.71167;Asia/Shanghai
1788081;Xuanzhou - CN;30.9525; 118.75528;Asia/Shanghai
5406222;Victorville - US;34.53611; -117.29116;America/Los_Angeles
3980194;Ciudad de Villa de Alvarez - MX;19.26722; -103.73778;America/Mexico_City
1856367;Musashino - JP;35.70611; 139.55944;Asia/Tokyo
3461789;Guaruja - BR;-23.99306; -46.25639;America/Sao_Paulo
1665443;Yuanlin - TW;23.95671; 120.57608;Asia/Taipei
110336;Dammam - SA;26.43442; 50.10326;Asia/Riyadh
3161732;Bergen - NO;60.39299; 5.32415;Europe/Oslo
2940132;Chemnitz - DE;50.8357; 12.92922;Europe/Berlin
1271476;Guwahati - IN;26.1844; 91.7458;Asia/Kolkata
1567788;Soc Trang - VN;9.59995; 105.97193;Asia/Ho_Chi_Minh
1272243;Dam Dam - IN;22.63341; 88.42286;Asia/Kolkata
5526337;Midland - US;31.99735; -102.07791;America/Chicago
3675692;Magangue - CO;9.24202; -74.75467;America/Bogota
161325;Arusha - TZ;-3.36667; 36.68333;Africa/Dar_es_Salaam
6122091;Richmond Hill - CA;43.87111; -79.43725;America/Toronto
3522307;Orizaba - MX;18.85195; -97.09957;America/Mexico_City
3906791;Quillacollo - BO;-17.39228; -66.27838;America/La_Paz
6545348;Praga Poludnie - PL;52.24424; 21.08545;Europe/Warsaw
315373;Erzincan - TR;39.73919; 39.49015;Europe/Istanbul
2037222;Gongzhuling - CN;43.50075; 124.81979;Asia/Shanghai
2343983;Efon-Alaaye - NG;7.65649; 4.92235;Africa/Lagos
2775220;Innsbruck - AT;47.26266; 11.39454;Europe/Vienna
1816269;Baise - CN;23.89013; 106.62684;Asia/Shanghai
2415703;Siguiri - GN;11.42282; -9.16852;Africa/Conakry
288764;Bawshar - OM;23.57769; 58.39982;Asia/Muscat
1811028;Fuji - CN;29.14819; 105.37391;Asia/Shanghai
1817720;Shangyu - CN;30.01556; 120.87111;Asia/Shanghai
5339111;Concord - US;37.97798; -122.03107;America/Los_Angeles
3666645;Tulua - CO;4.08466; -76.19536;America/Bogota
1864134;Fuji - JP;35.16667; 138.68333;Asia/Tokyo
3598655;Chichicastenango - GT;14.94333; -91.11116;America/Guatemala
700569;Mykolayiv - UA;46.97625; 31.99296;Europe/Kyiv
3946083;Callao - PE;-12.05659; -77.11814;America/Lima
1864092;Fujisawa - JP;35.34926; 139.47666;Asia/Tokyo
339734;Debre Birhan - ET;9.67954; 39.53262;Africa/Addis_Ababa
2982652;Rouen - FR;49.44313; 1.09932;Europe/Paris
5011148;Sterling Heights - US;42.58031; -83.0302;America/Detroit
1880668;Geylang - SG;1.31953; 103.88689;Asia/Singapore
1220253;Istaravshan - TJ;39.9142; 69.00328;Asia/Dushanbe
535121;Lipetsk - RU;52.60311; 39.57076;Europe/Moscow
3105976;Vigo - ES;42.23282; -8.72264;Europe/Madrid
7302861;Ashoknagar Kalyangarh - IN;22.86416; 88.63701;Asia/Kolkata
5206379;Pittsburgh - US;40.44062; -79.99589;America/New_York
1255969;Sitapur - IN;27.56192; 80.68265;Asia/Kolkata
1314759;Lashio - MM;22.9359; 97.7498;Asia/Yangon
1168197;Peshawar - PK;34.008; 71.57849;Asia/Karachi
2938913;Darmstadt - DE;49.87167; 8.65027;Europe/Berlin
349158;Shibin al Kawm - EG;30.55258; 31.00904;Africa/Cairo
2511174;Santa Cruz de Tenerife - ES;28.46824; -16.25462;Atlantic/Canary
329114;Sebeta - ET;8.91667; 38.61667;Africa/Addis_Ababa
2640194;Plymouth - GB;50.37153; -4.14305;Europe/London
2317765;Zaria - NG;11.11128; 7.7227;Africa/Lagos
418863;Isfahan - IR;32.65246; 51.67462;Asia/Tehran
3844421;Mendoza - AR;-32.89084; -68.82717;America/Argentina/Mendoza
580497;Astrakhan - RU;46.34968; 48.04076;Europe/Astrakhan
1496503;Noyabrsk - RU;63.19309; 75.43728;Asia/Yekaterinburg
2026609;Blagoveshchensk - RU;50.27961; 127.5405;Asia/Yakutsk
1273241;Deoghar - IN;24.48983; 86.69902;Asia/Kolkata
1629131;Salatiga - ID;-7.33194; 110.49278;Asia/Jakarta
1849563;Tsuruoka - JP;38.72167; 139.82167;Asia/Tokyo
1815427;Chaohu - CN;31.6; 117.86667;Asia/Shanghai
8347664;Ordos - CN;39.6086; 109.78157;Asia/Shanghai
3688452;Buenaventura - CO;3.58333; -77.0;America/Bogota
3466692;Catanduva - BR;-21.13778; -48.97278;America/Sao_Paulo
554787;Izmaylovo - RU;55.78677; 37.80165;Europe/Moscow
3465038;Cuiaba - BR;-15.59611; -56.09667;America/Cuiaba
3472343;Americana - BR;-22.73917; -47.33139;America/Sao_Paulo
6167865;Toronto - CA;43.70643; -79.39864;America/Toronto
4381982;Columbia - US;38.95171; -92.33407;America/Chicago
1806466;Guangyuan - CN;32.44201; 105.823;Asia/Shanghai
1813812;Danshui - CN;22.7984; 114.46716;Asia/Shanghai
2034312;Ulanhot - CN;46.08333; 122.08333;Asia/Shanghai
2035980;Longfeng - CN;46.53168; 125.1038;Asia/Shanghai
3550598;Las Tunas - CU;20.96167; -76.95111;America/Havana
32900;Golestan - IR;35.5183; 51.1819;Asia/Tehran
3547398;Matanzas - CU;23.04111; -81.5775;America/Havana
2655984;Belfast - GB;54.59682; -5.92541;Europe/London
2540483;Oujda - MA;34.68139; -1.90858;Africa/Casablanca
3996069;Mexicali - MX;32.62781; -115.45446;America/Tijuana
4013708;Ciudad Juarez - MX;31.72024; -106.46084;America/Ciudad_Juarez
2334327;Kisi - NG;9.08297; 3.85196;Africa/Lagos
2746301;Tilburg - NL;51.55551; 5.0913;Europe/Amsterdam
1650357;Bandung - ID;-6.92222; 107.60694;Asia/Jakarta
107781;Az Zulfi - SA;26.29945; 44.81542;Asia/Riyadh
1864132;Fujieda - JP;34.86667; 138.26667;Asia/Tokyo
3649833;Acarigua - VE;9.55451; -69.19564;America/Caracas
1735498;Sungai Petani - MY;5.647; 100.48772;Asia/Kuala_Lumpur
1846918;Ansan-si - KR;37.32361; 126.82194;Asia/Seoul
5913490;Calgary - CA;51.05011; -114.08529;America/Edmonton
380173;Ed Damer - SD;17.59898; 33.97205;Africa/Khartoum
3389353;Santarem - BR;-2.44306; -54.70833;America/Santarem
2849483;Regensburg - DE;49.01513; 12.10161;Europe/Berlin
3456068;Novo Hamburgo - BR;-29.67833; -51.13056;America/Sao_Paulo
2867838;Muelheim - DE;51.43218; 6.87967;Europe/Berlin
496015;Shakhty - RU;47.70911; 40.21443;Europe/Moscow
1711082;Iligan City - PH;8.25; 124.4;Asia/Manila
2641430;Northampton - GB;52.25; -0.88333;Europe/London
100077;Abu Ghurayb - IQ;33.30563; 44.18477;Asia/Baghdad
745044;Istanbul - TR;41.01384; 28.94966;Europe/Istanbul
345149;Adigrat - ET;14.277; 39.462;Africa/Addis_Ababa
3345439;Telford - GB;52.67659; -2.44926;Europe/London
1796236;Shanghai - CN;31.22222; 121.45806;Asia/Shanghai
1811619;Ezhou - CN;30.4; 114.83333;Asia/Shanghai
8419424;Shenglilu - CN;29.35048; 105.8775;Asia/Shanghai
2033370;Yingkou - CN;40.66472; 122.23176;Asia/Shanghai
6693228;Balvanera - AR;-34.61032; -58.39766;America/Argentina/Buenos_Aires
3463030;Foz do Iguacu - BR;-25.54778; -54.58806;America/Sao_Paulo
1643761;Grogol - ID;-7.60111; 110.81861;Asia/Jakarta
1255647;Srikakulam - IN;18.2989; 83.89751;Asia/Kolkata
2416969;Nzerekore - GN;7.75624; -8.8179;Africa/Conakry
174018;Al Bab - SY;36.37051; 37.5157;Asia/Damascus
3466998;Carapicuiba - BR;-23.52272; -46.835;America/Sao_Paulo
360890;Al Khusus - EG;30.15293; 31.31501;Africa/Cairo
1185159;Nagarpur - BD;24.05783; 89.87696;Asia/Dhaka
5323810;Anaheim - US;33.83529; -117.9145;America/Los_Angeles
1848373;Yokkaichi - JP;34.96667; 136.61667;Asia/Tokyo
495344;Shchyolkovo - RU;55.92497; 37.97218;Europe/Moscow
563523;Elektrostal' - RU;55.78647; 38.45713;Europe/Moscow
1262332;Muzaffarnagar - IN;29.47091; 77.70332;Asia/Kolkata
122285;Neyshabur - IR;36.21329; 58.79575;Asia/Tehran
2440485;Niamey - NE;13.51366; 2.1098;Africa/Niamey
2338313;Ikeja - NG;6.59651; 3.34205;Africa/Lagos
2766824;Salzburg - AT;47.79941; 13.04399;Europe/Vienna
2033467;Yanji - CN;42.88825; 129.50241;Asia/Shanghai
3106672;Valladolid - ES;41.65518; -4.72372;Europe/Madrid
1819729;Hong Kong - HK;22.27832; 114.17469;Asia/Hong_Kong
750516;Bolu - TR;40.73583; 31.60611;Europe/Istanbul
1490624;Surgut - RU;61.25; 73.41667;Asia/Yekaterinburg
1861310;Itami - JP;34.78427; 135.40126;Asia/Tokyo
1529651;Altay - CN;47.84864; 88.13361;Asia/Urumqi
2036401;Jiutai - CN;44.1525; 125.83278;Asia/Shanghai
8504949;Vasyl'evsky Ostrov - RU;59.94091; 30.25377;Europe/Moscow
3521342;Playa del Carmen - MX;20.6274; -87.07987;America/Cancun
321836;Batman - TR;37.88738; 41.13221;Europe/Istanbul
4330145;Lafayette - US;30.22409; -92.01984;America/Chicago
3437056;San Lorenzo - PY;-25.33968; -57.50879;America/Asuncion
55671;Kismayo - SO;-0.35817; 42.54536;Africa/Mogadishu
3173331;Modena - IT;44.64783; 10.92539;Europe/Rome
1267016;Khanna - IN;30.70547; 76.22196;Asia/Kolkata
1581130;Hanoi - VN;21.0245; 105.84117;Asia/Bangkok
1631992;Pati - ID;-6.7559; 111.038;Asia/Jakarta
3865086;Bahia Blanca - AR;-38.7176; -62.26545;America/Argentina/Buenos_Aires
2548880;Fes al Bali - MA;34.0701; -4.95473;Africa/Casablanca
3992619;Piedras Negras - MX;28.70007; -100.52353;America/Matamoros
3620381;Chinandega - NI;12.62937; -87.13105;America/Managua
141681;Bandar Abbas - IR;27.1865; 56.2808;Asia/Tehran
8403616;Pailou - CN;30.79641; 108.3858;Asia/Shanghai
5405380;Vallejo - US;38.10409; -122.25664;America/Los_Angeles
3629710;Puerto Ayacucho - VE;5.66049; -67.58343;America/Caracas
1568574;Qui Nhon - VN;13.77648; 109.22367;Asia/Ho_Chi_Minh
1580410;Ha Long - VN;20.95045; 107.07336;Asia/Bangkok
1018725;Bloemfontein - ZA;-29.12107; 26.214;Africa/Johannesburg
6947641;Bueyuekcekmece - TR;41.02072; 28.58502;Europe/Istanbul
3190261;Split - HR;43.50891; 16.43915;Europe/Zagreb
5374732;Moreno Valley - US;33.93752; -117.23059;America/Los_Angeles
2800931;Brugge - BE;51.20892; 3.22424;Europe/Brussels
3471910;Apucarana - BR;-23.55083; -51.46083;America/Sao_Paulo
5784549;West Jordan - US;40.60967; -111.9391;America/Denver
1806408;Yangjiang - CN;21.85563; 111.96272;Asia/Shanghai
3665542;Zipaquira - CO;5.02208; -74.00481;America/Bogota
2516548;Huelva - ES;37.26638; -6.94004;Europe/Madrid
1859405;Kiryu - JP;36.4; 139.33333;Asia/Tokyo
3451353;Ribeirao das Neves - BR;-19.76694; -44.08667;America/Sao_Paulo
1020098;Benoni - ZA;-26.18848; 28.32078;Africa/Johannesburg
1630341;Purwakarta - ID;-6.55694; 107.44333;Asia/Jakarta
3435261;Concordia - AR;-31.39195; -58.01706;America/Argentina/Cordoba
763166;Olsztyn - PL;53.77995; 20.49416;Europe/Warsaw
3566067;Camagueey - CU;21.38083; -77.91694;America/Havana
785842;Skopje - MK;41.99646; 21.43141;Europe/Skopje
6544488;San Blas-Canillejas - ES;40.43893; -3.61537;Europe/Madrid
935264;Saint-Denis - RE;-20.88231; 55.4504;Indian/Reunion
3399415;Fortaleza - BR;-3.71722; -38.54306;America/Fortaleza
1784820;Xinghua - CN;32.93917; 119.83417;Asia/Shanghai
3388368;Sao Luis - BR;-2.52972; -44.30278;America/Fortaleza
3444914;Vitoria da Conquista - BR;-14.86611; -40.83944;America/Bahia
566199;Dimitrovgrad - RU;54.21386; 49.61838;Europe/Ulyanovsk
5350937;Fresno - US;36.74773; -119.77237;America/Los_Angeles
385038;Ar Rifa' - BH;26.13; 50.555;Asia/Bahrain
3172629;Monza - IT;45.58005; 9.27246;Europe/Rome
2082600;Jayapura - ID;-2.53371; 140.71813;Asia/Jayapura
1258126;Rishra - IN;22.72394; 88.34563;Asia/Kolkata
1261473;Neyveli - IN;11.60877; 79.4994;Asia/Kolkata
1862636;Hikone - JP;35.25; 136.25;Asia/Tokyo
1794903;Shiyan - CN;32.6475; 110.77806;Asia/Shanghai
940909;Welkom - ZA;-27.97742; 26.73506;Africa/Johannesburg
1163967;Tando Adam - PK;25.76818; 68.66196;Asia/Karachi
1688749;San Pedro - PH;14.3595; 121.0473;Asia/Manila
6176823;Waterloo - CA;43.4668; -80.51639;America/Toronto
1816221;Buhe - CN;30.28757; 112.22979;Asia/Shanghai
1909733;Banan - CN;29.37861; 106.54;Asia/Shanghai
12358576;Wanzhou - CN;30.76451; 108.39586;Asia/Shanghai
2907911;Heidelberg - DE;49.40768; 8.69079;Europe/Berlin
5387428;Richmond - US;37.93576; -122.34775;America/Los_Angeles
7281020;Lo Prado - CL;-33.4443; -70.72552;America/Santiago
1786378;Yongchuan - CN;29.35376; 105.89392;Asia/Shanghai
1803791;Licheng - CN;23.29549; 113.82465;Asia/Shanghai
1916012;Wuzhishan - CN;18.78229; 109.5013;Asia/Shanghai
3472287;Anapolis - BR;-16.32667; -48.95278;America/Sao_Paulo
217745;Bumba - CD;2.18771; 22.46827;Africa/Kinshasa
97990;Baqubah - IQ;33.75403; 44.60518;Asia/Baghdad
380148;El Daein - SD;11.46186; 26.12583;Africa/Khartoum
3452525;Pouso Alegre - BR;-22.23; -45.93639;America/Sao_Paulo
3471697;Araucaria - BR;-25.59306; -49.41028;America/Sao_Paulo
7602078;Ladner - CA;49.08938; -123.08241;America/Vancouver
2130404;Ebetsu - JP;43.10806; 141.55056;Asia/Tokyo
1809879;Guangshui - CN;31.6199; 113.9978;Asia/Shanghai
57289;Hargeysa - SO;9.56; 44.065;Africa/Mogadishu
4221333;Sandy Springs - US;33.92427; -84.37854;America/New_York
1818222;Yuen Long San Hui - HK;22.43333; 114.03333;Asia/Hong_Kong
1253958;Udgir - IN;18.39258; 77.11756;Asia/Kolkata
1729524;Bacoor - PH;14.45896; 120.93851;Asia/Manila
1789647;Xichang - CN;27.89642; 102.26341;Asia/Shanghai
1810638;Ganzhou - CN;25.84664; 114.9326;Asia/Shanghai
2989317;Orleans - FR;47.90289; 1.90389;Europe/Paris
3165524;Turin - IT;45.07049; 7.68682;Europe/Rome
3529612;Ecatepec de Morelos - MX;19.60492; -99.06064;America/Mexico_City
472761;Volgodonsk - RU;47.51361; 42.15139;Europe/Moscow
3874096;Quilpue - CL;-33.04752; -71.44249;America/Santiago
3021372;Dijon - FR;47.31667; 5.01667;Europe/Paris
1277082;Baranagar - IN;22.64132; 88.37727;Asia/Kolkata
3598465;Chiquimula - GT;14.8; -89.54583;America/Guatemala
1682659;Tayabas - PH;14.0259; 121.5929;Asia/Manila
1859675;Kawanishi - JP;34.81667; 135.41667;Asia/Tokyo
1790353;Xianyang - CN;34.33778; 108.70261;Asia/Shanghai
3673164;Palmira - CO;3.53944; -76.30361;America/Bogota
315202;Eskisehir - TR;39.77667; 30.52056;Europe/Istanbul
11238838;Merkezefendi - TR;37.80544; 29.04236;Europe/Istanbul
709930;Dnipro - UA;48.46664; 35.04066;Europe/Kyiv
5964700;Greater Sudbury - CA;46.49; -80.99001;America/Toronto
3191281;Sarajevo - BA;43.84864; 18.35644;Europe/Sarajevo
1632276;Parung - ID;-6.42139; 106.73306;Asia/Jakarta
3947019;Ayacucho - PE;-13.15878; -74.22321;America/Lima
1835235;Daejeon - KR;36.34913; 127.38493;Asia/Seoul
1241622;Kandy - LK;7.2906; 80.6336;Asia/Colombo
1258980;Raipur - IN;21.23333; 81.63333;Asia/Kolkata
696643;Poltava - UA;49.58925; 34.55367;Europe/Kyiv
4295940;Ironville - US;38.45647; -82.69238;America/New_York
3633622;Los Teques - VE;10.34447; -67.04325;America/Caracas
2193733;Auckland - NZ;-36.84853; 174.76349;Pacific/Auckland
1734759;Malacca - MY;2.196; 102.2405;Asia/Kuala_Lumpur
624784;Navapolatsk - BY;55.5318; 28.5987;Europe/Minsk
1580240;Hue - VN;16.4619; 107.59546;Asia/Bangkok
553915;Kaluga - RU;54.5293; 36.27542;Europe/Moscow
1850034;Tondabayashicho - JP;34.50065; 135.60211;Asia/Tokyo
3671116;Quibdo - CO;5.69188; -76.65835;America/Bogota
1793424;Tanggu - CN;39.02111; 117.64694;Asia/Shanghai
1801799;Luoyang - CN;23.16244; 114.27342;Asia/Shanghai
1804430;Lanzhou - CN;36.05701; 103.83987;Asia/Shanghai
307084;Kiziltepe - TR;37.18836; 40.57723;Europe/Istanbul
520068;Noginsk - RU;55.86486; 38.44853;Europe/Moscow
1486209;Yekaterinburg - RU;56.8519; 60.6122;Asia/Yekaterinburg
1792621;Tongling - CN;30.95; 117.78333;Asia/Shanghai
1270484;Halisahar - IN;22.93218; 88.41859;Asia/Kolkata
1849837;Toyonaka - JP;34.78244; 135.46932;Asia/Tokyo
1621177;Yogyakarta - ID;-7.80139; 110.36472;Asia/Jakarta
1630328;Purwokerto - ID;-7.42139; 109.23444;Asia/Jakarta
933945;Vacoas - MU;-20.29806; 57.47833;Indian/Mauritius
3522732;Nicolas Romero - MX;19.64177; -99.3068;America/Mexico_City
1855207;Nishinomiya-hama - JP;34.71562; 135.33199;Asia/Tokyo
2290412;Daoukro - CI;7.0591; -3.9631;Africa/Abidjan
12451089;Al-'Ubur - EG;30.22886; 31.48149;Africa/Cairo
1723510;Budta - PH;7.20417; 124.43972;Asia/Manila
3093133;Lodz - PL;51.77058; 19.47395;Europe/Warsaw
1213547;Tanjungbalai - ID;2.96667; 99.8;Asia/Jakarta
2244802;Thies - SN;14.78944; -16.92602;Africa/Dakar
1695743;Panalanoy - PH;11.25111; 125.00639;Asia/Manila
2520600;Cadiz - ES;36.52672; -6.2891;Europe/Madrid
3532497;Azcapotzalco - MX;19.48698; -99.18594;America/Mexico_City
5379513;Orange - US;33.78779; -117.85311;America/Los_Angeles
1498894;Miass - RU;55.045; 60.10833;Asia/Yekaterinburg
6642286;E'zhou - CN;30.39607; 114.88655;Asia/Shanghai
2034440;Tieli - CN;46.97544; 128.04804;Asia/Shanghai
2034655;Suihua - CN;46.64814; 126.96656;Asia/Shanghai
3165243;Trento - IT;46.06787; 11.12108;Europe/Rome
1784853;Zhaoqing - CN;23.04893; 112.46091;Asia/Shanghai
1256451;Shivpuri - IN;25.42378; 77.66223;Asia/Kolkata
3672328;Piedecuesta - CO;6.98789; -73.04953;America/Bogota
157738;Kigoma - TZ;-4.87694; 29.62667;Africa/Dar_es_Salaam
5334223;Carlsbad - US;33.15809; -117.35059;America/Los_Angeles
551487;Kazan - RU;55.78874; 49.12214;Europe/Moscow
1488754;Tyumen - RU;57.15222; 65.52722;Asia/Yekaterinburg
518970;Novocherkassk - RU;47.42096; 40.09185;Europe/Moscow
3925033;Ji Parana - BR;-10.88528; -61.95167;America/Porto_Velho
1712051;Guyong - PH;14.8361; 120.97844;Asia/Manila
3397277;Joao Pessoa - BR;-7.115; -34.86306;America/Fortaleza
3463690;Eunapolis - BR;-16.3775; -39.58028;America/Bahia
624079;Orsha - BY;54.5081; 30.4172;Europe/Minsk
1325211;Hinthada - MM;17.64944; 95.45705;Asia/Yangon
1687687;Santol - PH;15.16222; 120.5675;Asia/Manila
1709968;Kabankalan - PH;9.9839; 122.81423;Asia/Manila
2036434;Lianshan - CN;40.76432; 120.85327;Asia/Shanghai
2797656;Gent - BE;51.05; 3.71667;Europe/Brussels
1859924;Kashiwa - JP;35.86224; 139.97732;Asia/Tokyo
1267076;Khammam - IN;17.24767; 80.14368;Asia/Kolkata
3173435;Milan - IT;45.46427; 9.18951;Europe/Rome
1722186;Butuan - PH;8.94917; 125.54361;Asia/Manila
1216187;Shahrisabz - UZ;39.05778; 66.83417;Asia/Samarkand
747340;Esenler - TR;41.0435; 28.87619;Europe/Istanbul
6543969;Lyon 03 - FR;45.76124; 4.85184;Europe/Paris
3393001;Parnaiba - BR;-2.90472; -41.77667;America/Fortaleza
3583361;San Salvador - SV;13.68935; -89.18718;America/El_Salvador
701404;Melitopol - UA;46.84735; 35.38196;Europe/Kyiv
6544104;Sants-Montjuic - ES;41.37263; 2.1546;Europe/Madrid
1797551;Qinzhou - CN;21.98247; 108.65061;Asia/Shanghai
5950268;Etobicoke - CA;43.64415; -79.56985;America/Toronto
3837213;San Juan - AR;-31.5375; -68.53639;America/Argentina/San_Juan
1862415;Hiroshima - JP;34.4; 132.45;Asia/Tokyo
1259012;Raichur - IN;16.20546; 77.35567;Asia/Kolkata
3086586;Rybnik - PL;50.09713; 18.54179;Europe/Warsaw
1503277;Kiselevsk - RU;53.99; 86.6621;Asia/Novokuznetsk
989921;Klerksdorp - ZA;-26.85213; 26.66672;Africa/Johannesburg
1276058;Bhatpara - IN;22.86643; 88.40113;Asia/Kolkata
1862302;Hofu - JP;34.05; 131.56667;Asia/Tokyo
3118594;Leganes - ES;40.32718; -3.7635;Europe/Madrid
2313002;Matadi - CD;-5.83861; 13.46306;Africa/Kinshasa
2395914;Abomey-Calavi - BJ;6.44852; 2.35566;Africa/Porto-Novo
305268;Kutahya - TR;39.42417; 29.98333;Europe/Istanbul
108410;Riyadh - SA;24.68773; 46.72185;Asia/Riyadh
6159905;Surrey - CA;49.10635; -122.82509;America/Vancouver
1566083;Ho Chi Minh City - VN;10.82302; 106.62965;Asia/Ho_Chi_Minh
1862462;Hiratsuka - JP;35.32785; 139.33735;Asia/Tokyo
1259385;Port Blair - IN;11.66613; 92.74635;Asia/Kolkata
2013952;Ust'-Ilimsk - RU;58.00056; 102.66194;Asia/Irkutsk
1646492;Cileunyi - ID;-6.93889; 107.75278;Asia/Jakarta
2337207;Ise-Ekiti - NG;7.46478; 5.42333;Africa/Lagos
5295985;Glendale - US;33.53865; -112.18599;America/Phoenix
1514588;Andijon - UZ;40.78206; 72.34424;Asia/Tashkent
3068160;Pilsen - CZ;49.74747; 13.37759;Europe/Prague
2637487;Southampton - GB;50.90395; -1.40428;Europe/London
5139568;Staten Island - US;40.56233; -74.13986;America/New_York
484907;Taganrog - RU;47.23627; 38.9053;Europe/Moscow
1582173;GJuc Trong - VN;11.73559; 108.3733;Asia/Ho_Chi_Minh
2163355;Hobart - AU;-42.87936; 147.32941;Australia/Hobart
3529982;Cuautla - MX;18.8106; -98.93525;America/Mexico_City
1520240;Pavlodar - KZ;52.28333; 76.96667;Asia/Almaty
2558470;Khemisset - MA;33.82404; -6.06627;Africa/Casablanca
1790923;Wuxi - CN;31.56887; 120.28857;Asia/Shanghai
1684269;Magugpo Poblacion - PH;7.4475; 125.8046;Asia/Manila
1177662;Gujranwala - PK;32.15567; 74.18705;Asia/Karachi
1181096;Chiniot - PK;31.72091; 72.97836;Asia/Karachi
1665221;Yongkang - TW;23.02444; 120.25556;Asia/Taipei
379252;Khartoum - SD;15.55177; 32.53241;Africa/Khartoum
5133273;Queens - US;40.68149; -73.83652;America/New_York
1262482;Monghyr - IN;25.37459; 86.47455;Asia/Kolkata
2641181;Norwich - GB;52.62783; 1.29834;Europe/London
1793879;Suizhou - CN;31.71111; 113.36306;Asia/Shanghai
1807234;Huangshi - CN;30.24706; 115.04814;Asia/Shanghai
10942283;Jinzhong - CN;37.68403; 112.75471;Asia/Shanghai
8285534;Fuencarral-El Pardo - ES;40.4984; -3.7314;Europe/Madrid
5174035;Toledo - US;41.66394; -83.55521;America/New_York
2686657;OErebro - SE;59.27412; 15.2066;Europe/Stockholm
